MID,DISCIPLINE,COMMONNAME,PHONE,WEBURL,LONGITUDE,LATITUDE,GSTREET,GCITY,GSTATE,GZIP5
8402100385,HSC,WWC PEAK-CORCORAN HOUSE, , ,-85.42543,38.25531,1003 GRAZING MEADOWS LN,LOUISVILLE,KY,40245
8402100387,HSC,AUBURN HISTORICAL SOCIETY,2705424677, ,-86.71328,36.86548,414 MAPLE ST,AUBURN,KY,42206
8402100389,HSC,LEWISBURG-NORTH LOGAN HISTORICAL COMMISSION,2707261678,HTTP://WWW.VISITLOGANCOUNTY.NET,-86.98514,36.91996,4539 STUART CHAPEL RD,LEWISBURG,KY,42256
8402100390,HSC,BRACKEN COUNTY HISTORICAL SOCIETY,6067353337, ,-84.09798,38.66459,PO BOX 307,BROOKSVILLE,KY,41004
8402100391,HSC,JANICE HOLT GILES AND HENRY GILES FOUNDATION, , ,-86.44109,36.98097,1251 MAGNOLIA ST,BOWLING GREE,KY,42104
8402100396,HSC,WHITLEY COUNTY HISTORICAL, ,HTTP://WCHGS.ORG/,-84.15343,36.72958,PO BOX 536,WILLIAMSBURG,KY,40769
8402100397,HSC,DAVID FARNSLEY HOUSE, , ,-85.7568,38.25514,400 W MARKET ST STE 1800,LOUISVILLE,KY,40202
8402100398,HSC,MARTIN COUNTY HISTORICAL GENEALOGICAL SOCIETY,6065347179,HTTP://MARTINCOUNTY.WEEBLY.COM/,-82.52167,37.86198,PO BOX 501,INEZ,KY,41224
8402100403,HSC,OLIVE HILL HISTORICAL SOCIETY, ,HTTP://WWW.OLIVEHILLHISTORICALSOCIETY.ORG,-83.17331,38.30273,120 COMET DRIVE,OLIVE HILL,KY,41164
8402100406,HSC,SCOTT COUNTY ARTS CONSORTIUM,5025708366, ,-84.56142,38.21268,117 NORTH WATER STREET,GEORGETOWN,KY,40324
8402100409,HSC,GRAVES COUNTY HISTORICAL SOCIETY, , ,-88.63549,37.07164,PO BOX 3685,PADUCAH,KY,42002
8402100410,HSC,ALLEN COUNTY HITORICAL & GENEALOGY SOCIETY,2702373026, ,-86.18604,36.75456,301 NORTH FOURTH STREET,SCOTTSVILLE,KY,42164
8402100414,HSC,UPPER TOWN HERITAGE FOUNDATION,2704421702, ,-88.60201,37.07848,921 OSCAR CROSS AVE,PADUCAH,KY,42003
8402100415,HSC,BIG BONE,8596895631,HTTP://WWW.FRIENDSOFBIGBONE.ORG/INDEX.HTM,-84.67392,38.9538,PO BOX 675,UNION,KY,41091
8402100416,HSC,HISTORIC BOWMAN MILL NEIGHBORHOOD ASSOCIATION, , ,-84.5919,38.0242,3725 BOWMAN MILL RD,LEXINGTON,KY,40513
8402100417,HSC,BOONE COUNTY HISTORICAL SOCIETY, ,HTTP://BOONECOUNTYKYHISTORY.ORG/,-84.64281,38.98976,PO BOX 23,FLORENCE,KY,41022
8402100418,HSC,LINCOLN COUNTY HISTORICAL SOCIETY, , ,-84.67317,37.52035,PO BOX 570,STANFORD,KY,40484
8402100419,HSC,METCALFE COUNTY HISTORICAL SOCIETY, , ,-85.60662,36.99609,PO BOX 910,EDMONTON,KY,42129
8402100421,HSC,ELKHORN CITY AREA HERITAGE COUNCIL, ,HTTP://WWW.ELKHORNCITY.ORG/ECAHC,-82.41063,37.31404,HATCHER STREET PO BOX 1332,ELKHORN CITY,KY,41522
8402100427,HSC,MCLEAN COUNTY HISTORICAL & GENEALOGICAL MUSEUM, , ,-87.2643,37.56698,PO BOX 34,CALHOUN,KY,42327
8402100430,HSC,PAINTED STONE SETTLERS,5022283746,HTTP://WWW.PAINTEDSTONESETTLERS.ORG/,-85.22556,38.21132,PO BOX 1381,SHELBYVILLE,KY,40066
8402100432,HSC,WILLISBURG HISTORICAL AND GENEALOGY SOCIETY, , ,-85.12767,37.80911,2387 MAIN ST,WILLISBURG,KY,40078
8402100438,HSC,LAUREL HOME GUARD,6068782563, ,-84.08539,37.01343,90 DEBORAH LN,LILY,KY,40740
8402100440,HSC,HISTORIC LOCUST GROVE,5028979845,HTTP://LOCUSTGROVE.ORG/,-85.66129,38.28622,561 BLANKENBAKER LN,LOUISVILLE,KY,40207
8402100442,HSC,STONE HERITAGE,8452687865,HTTP://STONEHERITAGEINC.ORG,-73.93269,41.13427,203 MASSACHUSETTS AVENUE,CONGERS,NY,41567
8402100449,HSC,OWEN COUNTY HISTORICAL SOCIETY,5024842529, ,-84.83636,38.53532,206 N MAIN ST,OWENTON,KY,40359
8402100451,HSC,KENTUCKY HISTORICAL SOCIETY,5025641792, ,-84.87408,38.19849,100 W BROADWAY ST,FRANKFORT,KY,40601
8402100454,HSC,HISTORIC MIDDLETOWN,5022452762, ,-85.53022,38.24598,PO BOX 43893,MIDDLETOWN,KY,40253
8402100455,HSC,HISTORIC HOMES FOUNDATION,5028995079,HTTP://WWW.HISTORICHOMES.ORG,-85.67609,38.24855,3110 LEXINGTON RD,LOUISVILLE,KY,40206
8402100456,HSC,CLAY COUNTY GENEALOGICAL AND HISTORICAL SOCIETY,6065985507,HTTP://WWW.CLAYFAMILIES.COM,-83.76475,37.1687,PO BOX 394,MANCHESTER,KY,40962
8402100463,HSC,WHEELWRIGHT HISTORICAL SOCIETY,6064521211,HTTPS://WWW.FACEBOOK.COM/WHEELWRIGHTHISTORICALSOCIETY,-82.71662,37.35235,1653 KEY ROUTE 306,WHEELWRIGHT,KY,41669
8402100464,HSC,CARRIAGE ASSOCIATION OF AMERICA, , ,-84.54055,38.10648,3915 JAY TRUMP RD,LEXINGTON,KY,40511
8402100472,HSC,NEWPORT SOUTHBANK BRIDGE COMPANY,8596557700,HTTP://WWW.PURPLEPEOPLEBRIDGE.COM/,-84.49601,39.09218,425 YORK ST,NEWPORT,KY,41071
8402100473,HSC,KENTUCKY LINCOLN HERITAGE TRAIL ALLIANCE, , ,-85.74044,37.57406,66 LINCOLN SQ,HODGENVILLE,KY,42748
8402100479,HSC,ABRAHAM LINCOLN BIRTHPLACE NHP,2703583137, ,-85.73357,37.5342,2995 LINCOLN FARM ROAD,HODGENVILLE,KY,42748
8402100480,HSC,MAMMOTH CAVE NATIONAL PARK,2707582143, ,-86.18355,37.27345,POST OFFICE BOX 7,MAMMOTH CAVE,KY,42259
8402200005,HSC,WESTWEGO HISTORIC MUSEUM,5043413161, ,-90.14283,29.91494,275 SALA AVE,WESTWEGO,LA,70094
8402200007,HSC,SOUTHDOWN PLANTATION HOUSE,9858510154,HTTP://WWW.SOUTHDOWNMUSEUM.ORG,-90.74301,29.58649,1208 MUSEUM DR,HOUMA,LA,70360
8402200011,HSC,TURN OF CENTURY HOUSE,9853804651, ,-91.20877,29.69635,715 2ND ST,MORGAN CITY,LA,70380
8402200023,HSC,NOTTOWAY PLANTATION HOUSE,2255452730,HTTP://WWW.NOTTOWAY.COM/,-91.15883,30.15671,31025 LOUISIANA 1,WHITE CASTLE,LA,70788
8402200041,HSC,LOUISIANA HISTORICAL ASSOCIATION,5045234522, ,-90.07108,29.94383,929 CAMP STREET,NEW ORLEANS,LA,70130
8402200043,HSC,MAGNOLIA MOUND PLANTATION,5043434955,HTTP://WWW.BREC.ORG,-91.18785,30.42687,2161 NICHOLSON DRIVE,BATON ROUGE,LA,70802
8402200047,HSC,MELROSE PLANTATION,3183790055,HTTP://WWW.MELROSEPLANTATION.ORG,-92.97963,31.60893,3533 LOUISIANA 119,MELROSE,LA,71452
8402200049,HSC,NEW ORLEANS HISTORIC VOODOO MUSEUM,5046800128,HTTP://WWW.VOODOOMUSEUM.COM,-90.06354,29.95971,724 DUMAINE ST,NEW ORLEANS,LA,70116
8402200051,HSC,MARIE LAVEAU HOUSE OF VOODOO,5045813751,HTTP://VOODOONEWORLEANS.COM/,-90.06523,29.9592,739 BOURBON ST,NEW ORLEANS,LA,70116
8402200056,HSC,KENT PLANTATION HOUSE,3184875660, ,-92.48402,31.30366,3601 BAYOU RAPIDES RD,ALEXANDRIA,LA,71303
8402200058,HSC,HISTORIC NEW ORLEANS COLLECTION,5045234662,HTTP://WWW.HNOC.ORG,-90.0661,29.95656,533 ROYAL ST,NEW ORLEANS,LA,70130
8402200062,HSC,KATE CHOPIN HOME,3183792233,HTTP://WWW.KATECHOPIN.ORG/,-92.9176,31.54023,243 HWY 495,CLOUTIERVILLE,LA,71416
8402200072,HSC,EDWARD DOUGLASS WHITE HOUSE,9854470915, ,-90.81338,29.79878,2295 LOUISIANA 1,THIBODAUX,LA,70301
8402200078,HSC,DUNN HOUSE,3189388500,HTTP://GCC-LA.ORG/,-93.97381,32.44346,9371 GREENWOOD RD,GREENWOOD,LA,71033
8402200089,HSC,1850 HOUSE,5045686968,HTTP://WWW.CRT.STATE.LA.US/LOUISIANA-STATE-MUSEUM/INDEX,-90.06222,29.9578,523 SAINT ANN ST,NEW ORLEANS,LA,70116
8402200090,HSC,BEAUREGARD-KEYES HOUSE,5045237257, ,-90.06081,29.96093,1113 CHARTRES STREET,NEW ORLEANS,LA,70116
8402200091,HSC,AVIATION HISTORICAL MUSEUM,3183625540,HTTP://WWW.CHENNAULTMUSEUM.ORG,-92.0546,32.51529,701 KANSAS LN,MONROE,LA,71203
8402200092,HSC,TIOGA HISTORICAL SOCIETY, , ,-92.43481,31.39442,PO BOX 151,TIOGA,LA,71477
8402200097,HSC,FORT DERUSSY,3188763702, ,-92.01257,31.01617,7162 HIGHWAY 29,COTTONPORT,LA,71327
8402200099,HSC,CRESCENT CITY CARNIVAL MUSEUM,5048970744, ,-90.09237,29.92643,3525 PRYTANIA ST STE 602,NEW ORLEANS,LA,70115
8402200100,HSC,CASTOR HISTORICAL ASSOCIATION, , ,-93.12955,32.21404,PO BOX 383,CASTOR,LA,71016
8402200101,HSC,KATRINA NATIONAL MEMORIAL MUSEUM,5044952850,HTTP://WWW.KNMFNO.ORG,-90.07723,29.9765,2525 DESOTO ST,NEW ORLEANS,LA,70119
8402200102,HSC,RAYNE HISTORICAL DISTRICT ASSOCIATION, , ,-92.26595,30.23595,305 E LOUISIANA AVE,RAYNE,LA,70578
8402200107,HSC,LOUISIANA CREOLE RESEARCH ASSOCIATION, ,HTTP://LACREOLE.ORG/,-90.09164,29.97332,PO BOX 791845,NEW ORLEANS,LA,70179
8402200110,HSC,NEW ORLEANS JAZZ RESTORATION SOCIETY, , ,-90.12174,29.92416,6070 CHESTNUT ST,NEW ORLEANS,LA,70118
8402200111,HSC,SHREVEPORT HISTORIC PRESERVATION SOCIETY, ,HTTP://WWW.HISTORICSHREVEPORT.ORG,-93.70774,32.442,PO BOX 5911,SHREVEPORT,LA,71135
8402200115,HSC,ZYDECO HISTORICAL AND PRESERVATION SOCIETY,3373810592,HTTP://WWW.ZHPS.ORG/,-92.08014,30.53453,PO BOX 2361,OPELOUSAS,LA,70571
8402200117,HSC,MT LEBANON HISTORICAL SOCIETY,3188436658,HTTP://LEBOHISTORY.ORG/,-93.06576,32.51056,517 GIBSLAND STREET,GIBSLAND,LA,71028
8402200118,HSC,WEST BATON ROUGE HISTORICAL ASSOCIATION,2253362422,HTTP://WWW.WESTBATONROUGEMUSEUM.COM,-91.20602,30.4606,845 N JEFFERSON AVE,PORT ALLEN,LA,70767
8402200120,HSC,WEST FELICIANA HISTORICAL SOCIETY,2256356330,HTTP://WWW.STFRANCISVILLE.US/,-91.38258,30.77725,11757 FERDINAND ST,ST FRANCISVLE,LA,70775
8402200125,HSC,ASSOCIATION OF NATCHITOCHES WOMEN FOR THE PRESERVATION,3183577907,HTTP://WWW.MELROSEPLANTATION.ORG/APHN/,-93.08743,31.75546,310 JEFFERSON ST,NATCHITOCHES,LA,71457
8402200126,HSC,HISTORIC SPANISH TOWN CIVIC ASSOCIATION, , ,-91.1822,30.4494,PO BOX 3282,BATON ROUGE,LA,70821
8402200127,HSC,CALCASIEU HISTORICAL PRESERVATION SOCIETY TERM, , ,-93.21615,30.22553,PO BOX 1214,LAKE CHARLES,LA,70602
8402200128,HSC,LINCOLN MUSEUM & HISTORICAL SOCIETY,3182510018,HTTP://WWW.LINCOLNPARISHMUSEUM.ORG,-92.63784,32.53348,609 N VIENNA ST,RUSTON,LA,71270
8402200129,HSC,GARDEN OF ANGELS, , ,-93.72386,32.51905,1305 MARTIN LN,BOSSIER CITY,LA,71111
8402200130,HSC,SPRING STREET HISTORICAL MUSEUM,3184240964, ,-93.73033,32.44619,6121 FERN AVE UNIT 108,SHREVEPORT,LA,71105
8402200141,HSC,CLASSICAL INSTITUTE OF THE SOUTH, ,HTTP://WWW.CLASSICALINSTITUTEOFTHESOUTH.ORG,-90.08712,29.92507,1240 HARMONY ST,NEW ORLEANS,LA,70115
8402200145,HSC,LOUISIANA DUTCH OVEN SOCIETY LDOS, ,HTTP://WWW.LADUTCH.COM/,-93.67301,32.47399,PO BOX 9012,BOSSIER CITY,LA,71113
8402200146,HSC,CANE RIVER NATIONAL HERITAGE AREA,3183565555,HTTP://WWW.CANERIVERHERITAGE.ORG,-93.08717,31.75811,452 JEFFERSON ST,NATCHITOCHES,LA,71457
8402200149,HSC,TANGIPAHOA HOTEL CULTURAL CENTER, , ,-90.48385,30.73292,PO BOX 1017,AMITE,LA,70422
8402200154,HSC,HISTORIC CARTER HOUSE SOCIETY,2257470660, ,-90.57784,30.38597,P O BOX 668,SPRINGFIELD,LA,70462
8402200155,HSC,HISTORIC LANDMARK PRESERVATION SOCIETY, , ,-90.21297,29.96298,9709 ROBIN LN,RIVER RIDGE,LA,70123
8402200158,HSC,PRESERVING HISTORIC ALGIERS COMMUNITY CORP, , ,-90.03883,29.94365,1128 HANDEE STREET,NEW ORLEANS,LA,70114
8402200167,HSC,FAIRFIELD HISTORIC DISTRICT ASSOCIATION, ,HTTP://FAIRFIELDHISTORICDISTRICT.ORG,-93.75455,32.48903,1105 DALZELL ST,SHREVEPORT,LA,71104
8402200172,HSC,SCOTT HISTORICAL AND GENEALOGICAL SOCIETY, , ,-92.10244,30.24818,PO BOX 1882,SCOTT,LA,70583
8402200173,HSC,PLAQUEMINE LOCK STATE HISTORIC,2256877158, ,-91.23358,30.29224,57730 MAIN ST,PLAQUEMINE,LA,70764
8402200175,HSC,MARGARET PLACE HISTORICAL DISTRICT, , ,-93.21998,30.21861,120 DR MICHAEL DEBAKEY DRIVE,LAKE CHARLES,LA,70601
8402200182,HSC,JEANERETTE LANDMARK SOCIETY,3372765004,HTTP://WWW.JEANERETTELANDMARKS.ORG,-91.67048,29.91901,1701 MAIN ST,JEANERETTE,LA,70544
8402200184,HSC,MORGAN CITY, , ,-91.21073,29.69654,708 FRONT ST,MORGAN CITY,LA,70380
8402200190,HSC,BRIMSTONE HISTORICAL SOCIETY,3375270357,HTTP://WWW.BRIMSTONEMUSEUM.ORG,-93.37718,30.23116,900 S HUNTINGTON ST,SULPHUR,LA,70663
8402200191,HSC,ST JAMES HISTORICAL SOCIETY,2258699752, ,-90.6927,30.03978,1988 JEFFERSON HWY,LUTCHER,LA,70052
8402200206,HSC,SIMMESPORT HISTORICAL SOCIETY AND MUSEUM, , ,-91.83022,30.97167,PO BOX 456,SIMMESPORT,LA,71369
8402200211,HSC,USS MYLES C FOX DD 829 ASSOCIATION, , ,-92.08075,30.21735,106 YOUNG DR,LAFAYETTE,LA,70506
8402200213,HSC,SOUTHERN HISTORICAL RESEARCH AND RECOVERY ASSOCIATION, , ,-90.08549,29.9799,3229 GRAND ROUTE SAINT JOHN,NEW ORLEANS,LA,70119
8402200214,HSC,NEW ORLEANS OPERA ASSOCIATION,5048991945,HTTP://NEWORLEANSOPERA.ORG/,-90.07063,29.94708,616 GIROD ST STE 200,NEW ORLEANS,LA,70130
8402200216,HSC,WOMANS EXCHANGE,5045255661,HTTP://WWW.HGGHH.ORG/,-90.06726,29.95704,818 SAINT LOUIS ST,NEW ORLEANS,LA,70112
8402200221,HSC,LOUISIANA HISTORICAL ASSOCIATION, , ,-92.01717,30.21571,PO BOX 42808,LAFAYETTE,LA,70504
8402200222,HSC,LOUISIANA LANDMARKS SOCIETY,5044820312,HTTP://WWW.LOUISIANALANDMARKS.ORG,-90.08846,29.98131,1440 MOSS ST,NEW ORLEANS,LA,70119
8402200224,HSC,FOUNDATION FOR HISTORICAL LOUISIANA,2253872464,HTTP://FHL.ORG/,-91.18543,30.44692,502 NORTH BLVD,BATON ROUGE,LA,70802
8402200226,HSC,AMISTAD RESEARCH CENTER,5048623222,HTTP://WWW.AMISTADRESEARCHCENTER.ORG,-90.12391,29.93544,6823 ST CHARLES AVE,NEW ORLEANS,LA,70118
8402200230,HSC,DORCHEAT HISTORICAL ASSN & MUSEUM,3183773002, ,-93.28771,32.61553,116 PEARL STREET,MINDEN,LA,71058
8402200232,HSC,RIVER ROAD HISTORICAL SOCIETY,9857649315,HTTP://WWW.DESTREHANPLANTATION.ORG,-90.36795,29.9461,13034 RIVER RD,DESTREHAN,LA,70047
8402200236,HSC,SAN FRANCISCO PLANTATION,9855352341,HTTP://WWW.SANFRANCISCOPLANTATION.ORG,-90.61936,30.05458,PO BOX 950,GARYVILLE,LA,70051
8402200237,HSC,GRETNA HISTORICAL SOCIETY,5043623854, ,-90.063,29.91872,209 LAFAYETTE ST,GRETNA,LA,70054
8402200240,HSC,HISTORICAL ASSOCIATION OF CENTRAL LOUISIANA, , ,-92.44592,31.31015,PO BOX 1007,ALEXANDRIA,LA,71309
8402200241,HSC,POINTE COUPEE HISTORICAL SOCIETY,2256386575, ,-91.43994,30.69195,500 WEST MAIN STREET,NEW ROADS,LA,70760
8402200244,HSC,EAST FELICIANA HISTORICAL PRESERVATION SOCIETY, , ,-90.94154,30.83658,PO BOX 121,CLINTON,LA,70722
8402200245,HSC,LOUISIANA PRESERVATION ALLIANCE,2259300936,HTTP://LTHP.ORG/,-91.13223,30.43788,1165 S FOSTER DRIVE,BATON ROUGE,LA,70821
8402200246,HSC,MERRYVILLE HISTORICAL SOCIETY & MUSEUM,3378250101,HTTPS://WWW.FACEBOOK.COM/MERRYVILLEMUSEUM,-93.54253,30.75461,628 N RAILROAD STREET,MERRYVILLE,LA,70653
8402200252,HSC,CADDO PINE ISLAND OIL HISTORICAL SOCIETY,3189956845, ,-93.98948,32.74847,200 S LAND AVE,OIL CITY,LA,71061
8402200253,HSC,GERMAN-ACADIAN COAST HISTORICAL & GENEALOGICAL SOCIETY, ,HTTP://WWW.GACHGS.COM/,-90.50122,30.07659,PO BOX 3086,LAPLACE,LA,70069
8402200255,HSC,VERMILION HISTORICAL SOCIETY,3378984114,HTTP://WWW.VERMILIONHISTORICAL.COM,-92.13553,29.97364,120 PEACE ST,ABBEVILLE,LA,70510
8402200260,HSC,LOUISIANA HISTORICAL SOCIETY,5048663049,HTTP://LOUISIANAHISTORICALSOCIETY.ORG,-90.11618,29.92495,5615 PERRIER ST,NEW ORLEANS,LA,70005
8402200261,HSC,OLD STATE-CAPITAL ASSOCIATES,2253420500,HTTP://LOUISIANAOLDSTATECAPITOL.ORG/,-91.18856,30.44681,100 NORTH BOULEVARD,BATON ROUGE,LA,70894
8402200262,HSC,JEFFERSON HISTORICAL SOCIETY OF LOUISIANA, ,HTTP://WWW.JEFFERSONHISTORICALSOCIETY.COM/,-90.15659,30.00927,PO BOX 113014,METAIRIE,LA,70011
8402200264,HSC,LOS ISLENOS HERITAGE & CULTURAL SOCIETY,5042774681,HTTP://WWW.LOSISLENOS.ORG/,-89.85984,29.86749,1357 BAYOU RD,ST BERNARD,LA,70130
8402200266,HSC,RED RIVER VALLEY HISTORICAL RAILROAD SOCIETY,3187975093,HTTP://NORTHLOUISIANATRAINSHOW.4T.COM/WHATS_NEW_1.HTML,-93.81186,32.48905,2424 LAKECREST DRIVE,SHREVEPORT,LA,71109
8402200269,HSC,BREAUX BRIDGE HISTORICAL SOCIETY, , ,-91.89636,30.26819,200 WEBB AVE,BREAIX BRIDGE,LA,70517
8402200270,HSC,BATTLE OF PLEASANT HILL, ,HTTP://WWW.BATTLEOFPLEASANTHILL.COM/,-93.51002,31.8075,23271 HWY 175,PLEASANT HILL,LA,71065
8402200276,HSC,MCKINLEY HIGH SCHOOL ALUMNI ASSOCIATION,2253834866, ,-91.17876,30.43403,1520 THOMAS H DELPIT DRIVE,BATON ROUGE,LA,70821
8402200282,HSC,ORIGINAL RICHLAND LIBRARY RESTORATION SOCIETY, , ,-91.74686,32.46501,PO BOX 522,RAYVILLE,LA,71269
8402200285,HSC,EDWARD LIVINGSTON HISTORICAL ASSOCIATION, , ,-90.75234,30.41763,PO BOX 67,LIVINGSTON,LA,70754
8402200293,HSC,CAMP MOORE HISTORICAL ASSOCIATION,9852292438,HTTP://WWW.CAMPMOORELA.COM/,-90.51085,30.87433,70640 CAMP MOORE ROAD,TANGIPAHOA,LA,70465
8402200294,HSC,PONCHATOULA COUNTY MARKET,9853869580,HTTP://WWW.PONCHATOULACOUNTRYMARKET.ORG/,-90.4438,30.43875,10 E PINE ST,PONCHATOULA,LA,70454
8402200295,HSC,KANSAS CITY SOUTHERN HISTORICAL SOCIETY, ,HTTP://WWW.KCSHS.ORG/,-93.70774,32.442,PO BOX 5332,SHREVEPORT,LA,71135
8402200298,HSC,SUPREME COURT OF LOUISIANA HISTORICAL SOCIETY, , ,-90.06674,29.9556,400 ROYAL STREET 2ND FL,NEW ORLEANS,LA,70130
8402200299,HSC,ZACHARY HISTORICAL ASSOCIATION,2256540122,HTTP://WWW.ZACHARYPOST.COM,-91.15562,30.64749,4630 VIRGINIA ST,ZACHARY,LA,70791
8402200300,HSC,BERNICE HISTORICAL SOCIETY,3182852433,HTTP://WWW.BERNICELA.ORG,-92.63293,32.81546,PO BOX 633,BERNICE,LA,71222
8402200301,HSC,PAMOJA ART SOCIETY,3182271971, ,-93.76294,32.47359,3806 LINWOOD AVE,SHREVEPORT,LA,71103
8402200302,HSC,STARKS HISTORICAL SOCIETY, , ,-93.68224,30.32285,308 OLD RIVER RD,STARKS,LA,70661
8402200303,HSC,PRESERVATION ALLIANCE OF LAFAYETTE, , ,-92.01362,30.2446,220 WEST WILLOW STREET B,LAFAYETTE,LA,70501
8402200307,HSC,OUACHITA AFRICAN-AMERICAN HISTORICAL SOCIETY,3183231167, ,-92.07359,32.69959,PO BOX 9295,MONROE,LA,71211
8402200309,HSC,HISTORIC POPLAR GROVE COMMUNITY,2253443913, ,-91.21004,30.44934,404 S ALEXANDER AVE,PORT ALLEN,LA,70767
8402200310,HSC,MADISON HISTORICAL SOCIETY,3185740082, ,-91.18632,32.40659,PO BOX 268,TALLULAH,LA,71284
8402200311,HSC,NATCHITOCHES HISTORIC FOUNDATION,3183520990,HTTP://WWW.HISTORICFOUNDATION.ORG/,-93.08801,31.76041,550 2ND ST,NATCHITOCHES,LA,71457
8402200317,HSC,NATCHITOCHES GENEALOGICAL & HISTORICAL ASSOCIATION,3183572235, ,-93.08828,31.76185,PO BOX 1349,NATCHITOCHES,LA,71457
8402200321,HSC,RED RIVER CROSSROADS HISTORICAL ASSOCIATION, , ,-93.82319,32.83104,PO BOX 159,GILLIAM,LA,71029
8402200324,HSC,HISTORICAL SOCIETY OF NORTH CADDO, , ,-93.98764,32.86678,PO BOX 31,VIVIAN,LA,71082
8402200340,HSC,ACADIAN HERITAGE & CULTURE FOUNDATION, , ,-92.0347,29.95709,203 S BROADWAY ST,ERATH,LA,70533
8402200343,HSC,MUSICAL ARTS SOCIETY OF NEW ORLEANS, , ,-90.09335,29.93188,PO BOX 750698,NEW ORLEANS,LA,70175
8402200345,HSC,MUSEUM HISTORIC NATCHITCHS,3183570070, ,-93.08608,31.76419,840 WASHINGTON ST,NATCHITOCHES,LA,71457
8402200347,HSC,HISTORIC GRAND CANE ASSOCIATION, ,HTTP://VILLAGEOFGRANDCANE.COM/ORGANIZATIONS/HISTORIC-GRAND-CANE-ASSOCIATION,-93.80073,32.10369,PO BOX 295,GRAND CANE,LA,71032
8402200352,HSC,WESTWEGO HISTORICAL SOCIETY,5043412544, ,-90.14076,29.91259,502 SECOND ST,WESTWEGO,LA,70094
8402200357,HSC,HISTORIC DONALDSONVILLE MUSEUM,2257460004, ,-90.9883,30.10667,318 MISSISSIPPI ST,DONALDSONVILL,LA,70346
8402200358,HSC,RURAL LIFE MUSEUM,2257652437, ,-91.13547,30.41899,4911 BENNINGTON AVE,BATON ROUGE,LA,70808
8402200362,HSC,ABBEVILLE CULTURAL & HISTORICAL ALLIANCE, , ,-92.13184,29.96968,PO BOX 935,ABBEVILLE,LA,70511
8402200364,HSC,RAGLEY HISTORICAL SOCIETY, , ,-93.23895,30.53264,377 BURNETT LOOP,LONGVILLE,LA,70652
8402200366,HSC,VERNON HISTORICAL AND GENEALOGICAL SOCIETY,3372390537, ,-93.35044,31.18583,190 LAKESHORE DRIVE,LEESVILLE,LA,71496
8402200370,HSC,GUARDIANS OF SLIDELL HISTORY, , ,-89.7815,30.27693,PO BOX 2223,SLIDELL,LA,70459
8402200376,HSC,MCNEILL STREET PUMPING STATION PRESERVATION SOCIETY,3182213388,HTTP://WWW.MCNEILLSTREET.ORG/SOCIETY.HTM,-93.74489,32.5078,PO BOX 957,SHREVEPORT,LA,71163
8402200377,HSC,SABINE PASS LIGHTHOUSE, , ,-93.16609,30.016,101 ELAINE LN,LAKE CHARLES,LA,70607
8402200381,HSC,NEW ORLEANS MUSICAL LEGENDS,5047377636,HTTP://WWW.NEWORLEANSMUSICALLEGENDS.COM,-90.07052,29.95971,501 BASIN ST A,NEW ORLEANS,LA,70112
8402200383,HSC,ALGIERS HISTORICAL SOCIETY, ,HTTP://ALGIERSHISTORICALSOCIETY.ORG,-90.05194,29.95362,235 LAVERGNE ST,NEW ORLEANS,LA,70114
8402200388,HSC,HUNGARIAN SETTLEMENT HISTORICAL SOCIETY,2252945732,HTTP://WWW.HUNGARIANMUSEUM.COM/,-90.57694,30.46505,27455 HIGHWAY 43,HAMMOND,LA,70711
8402200395,HSC,DRY PRONG HISTORICAL SOCIETY,3188997334,HTTPS://WWW.FACEBOOK.COM/DRYPRONGHISTORICAL,-92.54283,31.53082,HIGHWAY 123,DRY PRONG,LA,71423
8402200403,HSC,KENNER LOUISIANA,5044687293,HTTP://WWW.KENNER.LA.US/,-90.24229,29.98951,1801 WILLIAMS BLVD,KENNER,LA,70062
8402200408,HSC,NORTH LOUISIANA HISTORICAL ASSOCIATION,3183574585, ,-93.7609,32.41873,PO BOX 6701,SHREVEPORT,LA,71136
8402200410,HSC,SAINT MRY CHPTR LA LNDMRK SOCIETY,3378282092,HTTP://GREVEMBERGHOUSE.COM/,-91.50766,29.79462,407 STERLING ROAD,FRANKLIN,LA,70538
8402200418,HSC,MARINER MARLIN ASSOCIATION, , ,-93.73991,32.44489,6664 GILBERT PL,SHREVEPORT,LA,71106
8402200419,HSC,MITCHELL COMMUNITY, , ,-93.62824,31.81188,3476 HIGHWAY 483,CONVERSE,LA,71419
8402200420,HSC,OUR COURTHOUSE, , ,-90.94154,30.83658,PO BOX 599,CLINTON,LA,70722
8402200422,HSC,OLD MANDEVILLE HISTORIC ASSOCIATION,8005098004,HTTP://WWW.OLDMANDEVILLEHISTORICASSOCIATION.ORG/,-90.06689,30.36172,605 CARROLL ST,MANDEVILLE,LA,70448
8402200431,HSC,NEW ORLEANS CULINARY AND CULTURAL PRESERVATION SOCIETY, , ,-90.04423,29.96156,538 LOUISA ST,NEW ORLEANS,LA,70117
8402200432,HSC,ST JOHN MILITARY PARK ASSOCIATION, , ,-90.55683,30.07303,355 AIRPORT RD,RESERVE,LA,70084
8402200434,HSC,ROYAL SOCIETY OF ST GEORGE IN THE CITY OF NEW ORLEANS, , ,-90.07326,29.95033,909 POYDRAS ST STE 1800,NEW ORLEANS,LA,70112
8402200436,HSC,CANE RIVER CREOLE NATIONAL HISTORICAL PARK,3183520383, ,-93.08805,31.74512,400 RAPIDES DRIVE,NATCHITOCHES,LA,71457
8402200437,HSC,NEW ORLEANS JAZZ NATIONAL HISTORICAL PARK,5045894806, ,-90.0649,29.95456,419 DECATUR STREET,NEW ORLEANS,LA,70130
8402200438,HSC,JEAN LAFITTE NATIONAL HISTORICAL PARK AND PRESERVE,5045893882, ,-90.0649,29.95456,419 DECATUR STREET,NEW ORLEANS,LA,70130
8402300002,HSC,VICTORIA SOCIETY OF MAINE,2077724841,HTTP://WWW.VICTORIAMANSION.ORG/LEARN/HISTORY.ASPX,-70.26034,43.65162,109 DANFORTH STREET,PORTLAND,ME,4101
8402300007,HSC,VINALHAVEN HISTORICAL SOCIETY MUSEUM,2078634410,HTTP://WWW.VINALHAVENHISTORICALSOCIETY.ORG/,-68.84122,44.05055,41 HIGH ST,VINALHAVEN,ME,4863
8402300011,HSC,WADSWORTH-LONGFELLOW HOUSE,2077741822, ,-70.26011,43.65681,489 CONGRESS ST,PORTLAND,ME,4101
8402300013,HSC,SHAKER SOCIETY,2079264597,HTTP://WWW.SHAKER.LIB.ME.US,-73.81854,42.7484,25 MEETING HOUSE RD,ALBANY,NY,12211
8402300029,HSC,PHIPPSBURG HISTORICAL MUSEUM,2073892393,HTTP://WWW.PHIPPSBURGHISTORICAL.COM/,-69.812,43.8202,24 PARKER HEAD RD,PHIPPSBURG,ME,4562
8402300031,HSC,OLSON HOUSE,2073540102,HTTP://FARNSWORTHMUSEUM.ORG,-69.27071,43.97968,427 HATHORNE POINT RD,CUSHING,ME,4563
8402300033,HSC,MAINE SEA COAST MISSIONARY HISTORICAL COLLECTION,2072885097,HTTP://WWW.SEACOASTMISSION.ORG/INDEX.PHP,-68.21068,44.3904,127 WEST STREET,BAR HARBOR,ME,4609
8402300036,HSC,NEW SWEDEN HISTORIC VILLAGE,2078963461,HTTP://WWW.MAINESWEDISHCOLONY.INFO,-68.11899,46.94201,116 STATION RD,NEW SWEDEN,ME,4762
8402300042,HSC,MUSICAL WONDER HOUSE,2078827163,HTTP://WWW.MUSICALWONDERHOUSE.COM,-69.66849,44.00315,18 HIGH ST,WISCASSET,ME,4578
8402300043,HSC,MONTPELLIER-HENRY KNOX MUSEUM,2073548062,HTTP://WWW.KNOXMUSEUM.ORG/,-69.16843,44.08059,30 HIGH ST,THOMASTON,ME,4861
8402300051,HSC,KITTERY HISTORICAL AND NAVAL MUSEUM,2074393080,HTTP://WWW.KITTERYMUSEUM.COM,-70.74185,43.10059,200 ROGERS RD,KITTERY,ME,3904
8402300052,HSC,KENNEBUNKPORT HISTORICAL SOCIETY,2079672751, ,-70.47683,43.38005,125 NORTH ST,KENNEBUNKPORT,ME,4046
8402300055,HSC,LINCOLNVILLE HISTORICAL SOCIETY,2077895445,HTTP://WWW.LINCOLNVILLEHISTORY.ORG,-69.01078,44.2819,33 BEACH RD,LINCOLNVILLE,ME,4849
8402300062,HSC,FRYEBURG HISTORICAL MUSEUM,2076972044, ,-70.97788,44.11819,98 N FRYEBURG RD,FRYEBURG,ME,4037
8402300064,HSC,FREEPORT HISTORICAL SOCIETY,2078653170,HTTP://FREEPORTHISTORICALSOCIETY.ORG,-70.10599,43.85555,45 MAIN STREET,FREEPORT,ME,4032
8402300071,HSC,ELIZABETH PERKINS HOUSE,2073634723,HTTP://WWW.OLDYORK.ORG,-70.66347,43.134,394 SOUTHSIDE RD,YORK,ME,3909
8402300073,HSC,AMERICANLIGHTHOUSE FOUNDATION,2075944174,HTTP://WWW.LIGHTHOUSEFOUNDATION.ORG/,-69.11373,44.10764,186 LIGHTHOUSE ROAD,OWLS HEAD,ME,4841
8402300077,HSC,BLAINE HOUSE,2072872121,HTTP://BLAINEHOUSE.ORG,-69.78027,44.3092,192 STATE ST,AUGUSTA,ME,4330
8402300080,HSC,ALEXANDER CRAWFORD HISTORICAL,2074547476, ,-67.5196,45.11505,216 POKEY RD,ALEXANDER,ME,4694
8402300084,HSC,VICTORIA MANSION,2077724841,HTTP://WWW.VICTORIAMANSION.ORG,-70.26034,43.65162,109 DANFORTH ST,PORTLAND,ME,4101
8402300085,HSC,BLOOMFIELD ACADEMY,2074749072, ,-69.71988,44.76577,9 ELM ST,SKOWHEGAN,ME,4976
8402300087,HSC,DYER LIBRARY ASSOCIATION,2072833861,HTTP://WWW.SACOMUSEUM.ORG,-70.44128,43.50178,371 MAIN ST,SACO,ME,4072
8402300089,HSC,MAINE HISTORICAL SOCIETY,2077741822,HTTP://WWW.MAINEHISTORY.ORG,-70.26011,43.65681,489 CONGRESS ST STE 2,PORTLAND,ME,4101
8402300090,HSC,SAGADAHOC HISTORY & GENEALOGY, , ,-69.81532,43.91586,33 SUMMER ST,BATH,ME,4530
8402300098,HSC,LINCOLN COUNTY HISTORICAL ASSOCIATION,2078826817,HTTP://WWW.LINCOLNCOUNTYHISTORY.ORG/,-69.66177,44.01046,133 FEDERAL STREET,WISCASSET,ME,4578
8402300099,HSC,NEW ENGLAND ELECTRIC RAILWAY HISTORICAL SOCIETY, , ,-70.48616,43.41034,PO BOX A,KENNEBUNKPOR,ME,4046
8402300104,HSC,GREATER PORTLAND LANDMARKS,2077745561,HTTP://PORTLANDLANDMARKS.ORG/,-70.2614,43.65302,93 HIGH ST,PORTLAND,ME,4101
8402300109,HSC,CUSHING HISTORICAL SOCIETY, ,HTTP://WWW.CUSHINGMAINEHISTORICALSOCIETY.ORG/,-69.25708,44.00141,17 HATHORNE POINT ROAD,CUSHING,ME,4563
8402300110,HSC,ISLESBORO HISTORICAL SOCIETY,2077346733,HTTP://WWW.ISLESBOROHISTORICAL.ORG/,-68.90215,44.30593,388 MAIN ROAD,ISLESBORO,ME,4848
8402300111,HSC,MAINE PRESERVATION,2077753652,HTTP://MAINEPRESERVATION.ORG/,-70.20559,43.80341,233 W MAIN ST,YARMOUTH,ME,4096
8402300112,HSC,BETHEL HISTORICAL SOCIETY,2078242908,HTTP://WWW.BETHELHISTORICAL.ORG/,-70.78998,44.40333,10 BROAD ST,BETHEL,ME,4217
8402300113,HSC,CANTON HISTORICAL SOCIETY, , ,-70.25498,44.48375,457 ALDEN HILL RD,JAY,ME,4239
8402300114,HSC,LOVELL HISTORICAL SOCIETY,2079253234,HTTP://WWW.LOVELLHISTORICALSOCIETY.ORG/,-70.89303,44.18176,MAINE 5,LOVELL,ME,4051
8402300115,HSC,OAKLAND AREA HISTORICAL SOCIETY, , ,-69.71941,44.54686,26 CHURCH ST,OAKLAND,ME,4963
8402300117,HSC,HISTORICAL SOCIETY OF LITCHFIELD, ,HTTP://WWW.HISTORICALSOCIETYOFLITCHFIELDMAINE.ORG/,-69.94851,44.15157,2400 HALLOWELL ROAD,LITCHFIELD,ME,4350
8402300118,HSC,LUBEC HISTORICAL SOCIETY, ,HTTP://VISITMAINE.COM,-66.99454,44.85339,155 MAIN ST,LUBEC,ME,4652
8402300119,HSC,BAR HARBOR HISTORICAL SOCIETY,2072880000,HTTP://WWW.BARHARBORHISTORICAL.ORG,-68.20753,44.38469,33 LEDGELAWN AVE,BAR HARBER,ME,4609
8402300120,HSC,ANDROSCOGGIN HISTORICAL SOCIETY,2077840586, ,-70.19906,44.10027,325 SABATTUS ST,LEWISTON,ME,4240
8402300121,HSC,LINCOLN HISTORICAL SOCIETY, ,HTTP://LINCOLNHISTORICALSOCIETY.ORG,-68.50535,45.36808,9 RAILROAD ST,LINCOLN,ME,4457
8402300122,HSC,BELGRADE HERITAGE AND MUSEUM SOCIETY, , ,-69.83398,44.4888,PO BOX 432,BELGRADE,ME,4917
8402300123,HSC,HARRISON HISTORICAL SOCIETY,2075832241,HTTPS://WWW.FACEBOOK.COM/HARRISONHISTORICALSOCIETYMAINE,-70.67419,44.10234,HASKELL HILL ROAD,HARRISON,ME,4040
8402300124,HSC,WINTER HARBOR HISTORICAL SOCIETY, , ,-68.09737,44.44758,PO BOX 93,WINTER HARBOR,ME,4693
8402300125,HSC,THOMASTON HISTORICAL SOCIETY,2073542295, ,-69.18232,44.07756,80 KNOX STREET,THOMASTON,ME,4861
8402300126,HSC,ANDOVER HISTORICAL SOCIETY,2073924742, ,-70.75217,44.62423,PO BOX 293,ANDOVER,ME,4216
8402300127,HSC,STOCKTON SPRINGS HISTORICAL SOCIETY, , ,-68.85745,44.51662,PO BOX 101,STOCKTON SPG,ME,4981
8402300130,HSC,POLAND SPRING PRESERVATION SOCIETY,2079984142,HTTP://WWW.POLANDSPRINGPS.ORG/,-70.37108,44.05559,37 PRESERVATION WAY,POLAND SPRING,ME,4274
8402300131,HSC,DRESDEN HISTORICAL SOCIETY, , ,-69.74465,44.08195,PO BOX 201,DRESDEN,ME,4342
8402300132,HSC,ALLAGASH HISTORICAL SOCIETY,2073983148, ,-69.08127,47.10424,456 DICKEY RD,ALLAGASH,ME,4774
8402300133,HSC,ISAAC FARRAR MANSION,2079412808,HTTP://WWW.BANGORY.ORG,-68.77522,44.79891,17 2ND ST,BANGOR,ME,4401
8402300134,HSC,YARMOUTH HISTORICAL SOCIETY,2078466259,HTTP://WWW.YARMOUTHMEHISTORY.ORG/,-70.19075,43.80853,118 E ELM ST,YARMOUTH,ME,4096
8402300136,HSC,WHITEFIELD HISTORICAL SOCIETY,2075495064, ,-69.60964,44.21452,749 EAST RIVER ROAD WHITEFIELD,WHITEFIELD,ME,4353
8402300137,HSC,BOWDOINHAM HISTORICAL SOCIETY, ,HTTP://WWW.BOWDOINHAMHISTORICALSOCIETY.ORG/,-69.87674,44.03359,PO BPX 101,BOWDOINHAM,ME,4008
8402300138,HSC,LIMINGTON HISTORICAL SOCIETY, ,HTTP://WWW.LIMINGTONHISTORY.ORG/,-70.69707,43.73459,7 JOE WEBSTER ROAD,LIMINGTON,ME,4049
8402300139,HSC,BREWER HISTORICAL SOCIETY, , ,-68.76291,44.79275,199 WILSON ST,BREWER,ME,4412
8402300140,HSC,SAINT AGATHE HISTORICAL SOCIETY,2075436364, ,-68.29927,47.2357,534 MAIN STREET,SAINT AGATHA,ME,4772
8402300141,HSC,ROCKLAND HISTORICAL SOCIETY,2075946193,HTTP://WWW.ROCKLANDLIBRARY.ORG/CS/?RENDER=PAGE&CALLNAME=HISTORICAL_SOCIETY,-69.11198,44.10528,80 UNION STREET,ROCKLAND,ME,4841
8402300142,HSC,WINTERPORT UNION MEETING HOUSE,2072234091,HTTPS://WWW.FACEBOOK.COM/WINTERPORTUNIONMEETINGHOUSE,-68.84676,44.63527,177 MAIN STREET,WINTERPORT,ME,4496
8402300145,HSC,SWEDEN HISTORICAL SOCIETY, , ,-70.79435,44.09805,372 SAM INGALLS RD,SWEDEN,ME,4040
8402300147,HSC,PENOBSCOT HISTORICAL SOCIETY, , ,-68.71055,44.47443,PO BOX 64,PENOBSCOT,ME,4476
8402300149,HSC,HARPSWELL HISTORICAL SOCIETY, ,HTTP://HARPSWELLHISTORICAL.ORG,-69.99195,43.79427,929 HARPSWELL NECK RD,HARPSWELL,ME,4079
8402300150,HSC,ELLSWORTH HISTORICAL SOCIETY,2076678235, ,-68.42543,44.54321,40 STATE ST,ELLSWORTH,ME,4605
8402300151,HSC,WINDHAM HISTORICAL SOCIETY,2078921433,HTTP://WINDHAMHISTORICAL.ORG,-70.40915,43.79017,234 WINDHAM CENTER ROAD,WINDHAM,ME,4062
8402300152,HSC,NOBLEBORO HISTORICAL SOCIETY,2075638816,HTTP://WWW.NOBLEBOROHISTORICALSOCIETY.ORG/,-69.47732,44.08492,198 CENTER ST,NOBLEBORO,ME,4555
8402300153,HSC,OLD BERWICK HISTORICAL SOCIETY,2073840000,HTTP://WWW.OLDBERWICK.ORG/,-70.80425,43.22518,2 LIBERTY STREET,SOUTH BERWICK,ME,3908
8402300155,HSC,ELIOT HISTORICAL SOCIETY, , ,-70.78668,43.13453,PO BOX 3,ELIOT,ME,3903
8402300156,HSC,WOOLWICH HISTORICAL SOCIETY,2074434833,HTTP://WOOLWICHHISTORICALSOCIETY.ORG,-69.77519,43.96005,ROUTE ONE AND NEQUASSET ROAD,WOOLWICH,ME,4579
8402300158,HSC,STRONG HISTORICAL SOCIETY,2076842975, ,-70.22875,44.84002,79 MAIN STREET PO BOX 133,STRONG,ME,4983
8402300160,HSC,WOODLAND HISTORICAL SOCIETY,2074934478, ,-68.07088,46.87276,341 WOODLAND CENTER RD,WOODLAND,ME,4736
8402300162,HSC,DEAD RIVER AREA HISTORICAL SOCIETY, , ,-70.43533,45.1442,171 MAIN STREET P O BOX 15,STRATTON,ME,4982
8402300163,HSC,MILLINOCKET HISTORICAL SOCIETY, ,HTTP://WWW.MILLINOCKETHISTORICALSOCIETY.ORG,-68.70743,45.65732,80 CENTRAL STREET,MILLINOCKET,ME,4462
8402300164,HSC,NORRIDGEWOCK HISTORICAL SOCIETY,2076345032, ,-69.824,44.71119,PO BOX 903,NORRIDGEWOCK,ME,4957
8402300165,HSC,WOODSTOCK HISTORICAL SOCIETY,2076652450, ,-70.52862,44.16445,511 ALLEN HILL RD,OXFORD,ME,4270
8402300166,HSC,LIVERMORE LIVERMORE FALLS HISTORICAL SOCIETY, , ,-70.24707,44.41799,34 BOWLES RD,LIVERMORE,ME,4253
8402300169,HSC,HISTORICAL SOCIETY OF THE TOWN OF HANCOCK MAINE,2074223080, ,-68.27536,44.51694,PO BOX 212,HANCOCK,ME,4640
8402300170,HSC,GOULDSBORO HISTORICAL SOCIETY, , ,-68.06323,44.46265,PO BOX 94,GOULDSBORO,ME,4607
8402300171,HSC,WILLOWBROOK AT NEWFIELD RESTORATION VILLAGE,2077932784,HTTP://WWW.WILLOWBROOKMUSEUM.ORG/,-70.86111,43.65355,70 ELM STREET,NEWFIELD,ME,4056
8402300172,HSC,LAMOINE HISTORICAL SOCIETY, , ,-68.32881,44.46914,362 LAMOINE BEACH RD,LAMOINE,ME,4605
8402300175,HSC,HISTORICAL SOCIETY OF WELLS AND OGUNQUIT,2076464775,HTTP://WWW.HISTORICALSOCIETYOFWELLSANDOGUNQUIT.ORG/,-70.5855,43.30343,938 POST RD,WELLS,ME,4090
8402300176,HSC,OXFORD HISTORICAL SOCIETY,2078242908, ,-70.50144,44.13589,27 ALLEN HILL RD,OXFORD,ME,4270
8402300177,HSC,OTISFIELD HISTORICAL SOCIETY,2075392521, ,-70.51932,44.07189,202 SCRIBNER HILL ROAD,OTISFIELD,ME,4270
8402300178,HSC,CASTINE HISTORICAL SOCIETY,2073264118,HTTP://WWW.CASTINEHISTORICALSOCIETY.ORG/,-68.79139,44.42123,17 SCHOOL ST,CASTINE,ME,4421
8402300179,HSC,FARMINGTON HISTORICAL SOCIETY,2077782835,HTTP://WWW.FARMINGTONHISTORY.ORG/,-70.14959,44.66906,118 ACADEMY STREET,FARMINGTON,ME,4938
8402300181,HSC,FRANKLIN HISTORICAL SOCIETY,2075653349, ,-68.26016,44.62019,PO BOX 317,FRANKLIN,ME,4634
8402300182,HSC,VIENNA HISTORICAL SOCIETY, , ,-69.96014,44.51505,57 OLD ROME RD,MOUNT VERNON,ME,4352
8402300183,HSC,DIXFIELD HISTORICAL SOCIETY,2075621100,HTTP://WWW.DIXFIELDHISTORY.COM/,-70.45687,44.53115,63 MAIN STREET,DIXFIELD,ME,4224
8402300184,HSC,PARIS CAPE HISTORICAL SOCIETY, , ,-70.51347,44.22777,19 PARK ST,SOUTH PARIS,ME,4281
8402300187,HSC,UNITY HISTORICAL SOCIETY,2079482798,HTTPS://UNITYHISTORICALSOCIETY.WORDPRESS.COM/,-69.32345,44.61888,8 DEPOT STREET,UNITY,ME,4988
8402300189,HSC,LIMERICK HISTORICAL SOCIETY, ,HTTP://WWW.LIMERICKHISTORICALSOCIETYME.ORG/,-70.79483,43.68811,35 MAIN ST,LIMERICK,ME,4048
8402300192,HSC,CHINA HISTORICAL SOCIETY, , ,-69.52264,44.45145,15 31ST FIRE RD,CHINA,ME,4358
8402300194,HSC,FORT KENT HISTORICAL SOCIETY, , ,-68.58807,47.23835,PO BOX 181,FORT KENT,ME,4743
8402300195,HSC,NEW SHARON HISTORICAL SOCIETY, , ,-70.01071,44.64432,PO BOX 51,NEW SHARON,ME,4955
8402300199,HSC,MONSON HISTORICAL SOCIETY, , ,-68.78407,44.73555,167 JOHNSON MILL RD,ORRINGTON,ME,4474
8402300200,HSC,NORWAY HISTORICAL SOCIETY,2077437377,HTTP://WWW.NORWAYHISTORICALSOCIETY.ORG,-70.54413,44.2145,471 MAIN ST,NORWAY,ME,4268
8402300201,HSC,GRAND LAKE STREAM HISTORICAL SOCIETY, , ,-67.7683,45.18186,15 WATER STREET,GRAND LAKE STREAM,ME,4668
8402300202,HSC,READFIELD UNION MEETING HOUSE COMPANY,2076854537, ,-69.96534,44.39217,22 CHURCH RD,READFIELD,ME,4355
8402300203,HSC,TURNER MUSEUM AND HISTORICAL ASSOCIATION,2072252629, ,-70.24883,44.2693,PO BOX 502,TURNER,ME,4282
8402300204,HSC,ST CROIX HISTORICAL SOCIETY,2074542604,HTTP://STCROIXHISTORICAL.COM/,-67.27623,45.1888,527 MAIN ST,CALAIS,ME,4619
8402300205,HSC,PITTSFIELD HISTORICAL SOCIETY,6034358004,HTTP://WWW.PITTSFIELDHISTORICALSOCIETY.ORG/,-69.38854,44.78616,13 ELM STREET,PITTSFIELD,ME,4967
8402300207,HSC,WATERBOROUGH HISTORICAL SOCIETY, , ,-70.72781,43.64547,PO BOX 498,N WATERBORO,ME,4061
8402300208,HSC,MAINE MILITARY HISTORICAL SOCIETY, , ,-69.78351,44.30951,33 STATE HOUSE STA,AUGUSTA,ME,4333
8402300209,HSC,READFIELD HISTORICAL SOCIETY,2076854662,HTTP://WWW.READFIELDHISTORICAL.ORG/,-69.93861,44.37895,759 MAIN STREET,READFIELD,ME,4355
8402300211,HSC,OAKFIELD HISTORICAL SOCIETY,2079478802,HTTP://WWW.OAKFIELDMUSEUM.ORG/,-68.13227,46.09547,40 STATION ST,OAKFIELD,ME,4763
8402300212,HSC,PARSONSFIELD-PORTER HISTORICAL SOCIETY,2076258344,HTTP://WWW.PARSONSFIELDPORTERHISTORICAL.ORG/,-70.88541,43.81064,92 MAIN STREET,PORTER,ME,4047
8402300214,HSC,HERMON HISTORICAL SOCIETY, , ,-68.9294,44.82998,574 WING RD,HERMON,ME,4401
8402300216,HSC,ST FRANCIS HISTORICAL SOCIETY,2073983387, ,-68.91523,47.1661,1074 MAIN ST,SAINT FRANCI,ME,4774
8402300217,HSC,ALBION HISTORICAL SOCIETY,5176295100,HTTP://WWW.ALBIONHISTORICALSOCIETY.ORG/,-69.44362,44.51991,509 S SUPERIOR ST,ALBION,ME,4910
8402300218,HSC,BROWNFIELD HISTORICAL SOCIETY,2079354392, ,-70.88718,43.94925,PO BOX 264,BROWNFIELD,ME,4010
8402300219,HSC,KINGS MILLS UNION HALL ASSOCIATION, , ,-69.60964,44.21452,PO BOX 49,WHITEFIELD,ME,4353
8402300220,HSC,LIMESTONE-CASWELL HISTORICAL SOCIETY, , ,-67.80387,46.92026,275 GRAND FALLS RD,LIMESTONE,ME,4750
8402300221,HSC,ST GEORGE HISTORICAL SOCIETY, , ,-69.10254,44.13942,4 BRISTOL DR,ROCKPORT,ME,4856
8402300223,HSC,TREMONT HISTORICAL SOCIETY,2072449753, ,-68.34748,44.24598,MUSEUM SHORE RD,SOUTHWEST HARBOR,ME,4653
8402300224,HSC,ATHENS HISTORICAL SOCIETY,2076542393,HTTP://VISITMAINE.COM/ORGANIZATION/ATHENS-HISTORICAL-SOCIETY-MUSEUM?UID=VTMB3457B1FB271AA916,-69.67176,44.94624,CHAPMAN RIDGE ROAD,ATHENS,ME,4912
8402300225,HSC,GREENE PLANTATION HISTORICAL SOCIETY, , ,-69.14429,44.37187,169 HOWARD RD,BELMONT,ME,4952
8402300227,HSC,WESSAWESKEAG HISTORICAL SOCIETY, , ,-69.13748,44.04042,PO BOX 12,S THOMASTON,ME,4858
8402300228,HSC,VASSALBORO HISTORICAL SOCIETY,2079233505,HTTP://VASSALBOROHISTORICALSOCIETY.ORG/,-69.60835,44.44977,PO BOX 43,E VASSALBORO,ME,4935
8402300229,HSC,HOPE HISTORICAL SOCIETY,2077634199,HTTP://HOPEMAINE.ORG,-69.15371,44.26454,441 CAMDEN ROAD,HOPE ME,ME,4847
8402300230,HSC,MILBRIDGE HISTORICAL SOCIETY,2075464471,HTTP://MILBRIDGEHISTORICALSOCIETY.ORG/,-67.88085,44.53536,83 MAIN STREET,MILBRIDGE,ME,4658
8402300231,HSC,SANGERVILLE HISTORICAL SOCIETY, , ,-69.31611,45.12565,DOUTY HILL ROAD,SANGERVILLE,ME,4479
8402300232,HSC,GEORGETOWN HISTORICAL SOCIETY,2073719200,HTTP://WWW.GEORGETOWNHISTORICALSOCIETY.ORG/,-69.75587,43.80345,20 BAY POINT RD,GEORGETOWN,ME,4548
8402300233,HSC,TEMPLE HISTORICAL SOCIETY,2077790845,HTTP://WWW.TCHISTORICALSOCIETY.ORG/,-70.24379,44.7019,2 DAY MOUNTAIN ROAD,TEMPLE,ME,4984
8402300234,HSC,ISLESFORD HISTORICAL SOCIETY,2072440910, ,-68.23377,44.26184,PO BOX 255,ISLESFORD,ME,4646
8402300235,HSC,DENMARK HISTORICAL SOCIETY, , ,-70.79269,43.97281,121 EAST MAIN STREET,DENMARK,ME,4022
8402300236,HSC,LEXINGTON HIGHLAND HISTORICAL SOCIETY, , ,-69.75698,44.55238,17 ROSSWOOD GREEN LN UNI,OAKLAND,ME,4963
8402300237,HSC,PROSPECT HISTORICAL SOCIETY,2037585503,HTTP://WWW.PROSPECTHISTORICALSOCIETY.ORG/,-68.85745,44.51662,61 WATERBURY ROAD,PROSPECT,ME,4981
8402300239,HSC,EVERGREEN,2077974597,HTTP://WWW.FRIENDSOFEVERGREEN.ORG/,-70.29414,43.68143,672 STEVENS AVENUE,PORTLAND,ME,4104
8402300240,HSC,JACKMAN MOOSE RIVER HISTORICAL SOCIETY,2076684875, ,-70.26173,45.63308,574 MAIN STREET,JACKMAN,ME,4945
8402300242,HSC,BALDWIN HISTORICAL SOCIETY, , ,-70.74301,43.82871,2 NORTON PLACE,EAST BALDWIN,ME,4091
8402300243,HSC,CORNISH HISTORICAL SOCIETY,2076253095, ,-70.7878,43.79989,40 MAIN STREET,CORNISH,ME,4020
8402300244,HSC,CHANNING CHAPEL PRESERVATION SOCIETY,2079632295, ,-68.09737,44.44758,PO BOX 182,WINTER HARBO,ME,4693
8402300245,HSC,PEARYS EAGLE ISLAND, ,HTTP://WWW.PEARYEAGLEISLAND.ORG:80/DEFAULT.HTM,-69.99516,43.73345,PO BOX 70,BAILEY ISLAN,ME,4003
8402300246,HSC,GREAT CRANBERRY HISTORICAL SOCIETY,2072447358,HTTP://GCIHS.ORG/,-68.25742,44.24548,251 GREAT CRANBERRY RD,CRANBERRY ISLES,ME,4625
8402300247,HSC,SEBEC HISTORICAL SOCIETY, , ,-69.1585,45.22845,651 NORTH RD,SEBEC,ME,4481
8402300248,HSC,HIRAM HISTORICAL SOCIETY,2076254762, ,-70.83561,43.85334,20 HISTORICAL RIDGE,HIRAM,ME,4041
8402300249,HSC,SEARSMONT HISTORICAL SOCIETY, , ,-69.19191,44.36523,PO BOX 104,SEARSMONT,ME,4973
8402300252,HSC,CLIFTON HISTORICAL SOCIETY, , ,-68.42143,44.56799,PO BOX 471,ELLSWORTH,ME,4605
8402300253,HSC,CARMEL HISTORICAL SOCIETY,2078487468, ,-69.08186,44.7923,12 PLYMOUTH ROAD,CARMEL,ME,4419
8402300254,HSC,INDUSTRY HISTORICAL SOCIETY,2077784974, ,-70.05602,44.74644,352 W MILLS RD,INDUSTRY,ME,4938
8402300255,HSC,CARTHAGE HISTORICAL SOCIETY, ,HTTP://GREATNONPROFITS.ORG/REVIEWS/FIND,-70.45026,44.62961,56 BERRY MILLS RD,CARTHAGE,ME,4224
8402300257,HSC,CORINTH HISTORICAL SOCIETY, , ,-69.0225,45.00187,306 MAIN STREET,CORINTH,ME,4427
8402300258,HSC,HISTORICAL SOCIETY OF NEWFIELD MAINE, , ,-70.86111,43.65355,PO BOX 82,NEWFIELD,ME,4056
8402300259,HSC,CHARLOTTE HISTORICAL SOCIETY, , ,-67.25824,45.01093,9 ANNAS DR,CHARLOTTE,ME,4666
8402300260,HSC,BAYSIDE HISTORICAL PRESERVATION SOCIETY, , ,-69.03987,44.32149,PO BOX 276,LINCOLNVILLE,ME,4849
8402300262,HSC,CORINNA HISTORICAL SOCIETY,2072782361, ,-69.26829,44.92293,44 SAINT ALBANS ROAD,CORINNA,ME,4967
8402300265,HSC,SQUIRREL ISLAND HISTORICAL SOCIETY, , ,-70.28392,43.98647,192 HATCH RD,NEW GLOUCEST,ME,4260
8402300266,HSC,PEMBROKE HISTORICAL SOCIETY,7812939083, ,-67.20053,44.96679,116 CENTER ST,PEMBROKE,ME,4666
8402300269,HSC,POLAND HISTORICAL SOCIETY, , ,-70.39787,44.06407,1229 MAINE ST,POLAND,ME,4274
8402300270,HSC,DOVER-FOXCROFT HISTORICAL SOCIETY,2075647137, ,-69.21191,45.18631,128 UNION SQ,DOVER-FOXCROFT,ME,4426
8402300272,HSC,MAINE AVIATION HISTORICAL SOCIETY,2079416757, ,-68.80858,44.79932,98 MAINE AVENUE,BANGOR,ME,4402
8402300275,HSC,SAINT LAWRENCE CHURCH,2073477177,HTTP://WWW.STLAWRENCEARTS.ORG/,-70.2464,43.66699,76 CONGRESS ST,PORTLAND,ME,4101
8402300276,HSC,LONG ISLAND HISTORICAL SOCIETY,2077662805, ,-70.15648,43.69126,PO BOX 281,LONG ISLAND,ME,4050
8402300279,HSC,MILO HISTORICAL SOCIETY,2079432369,HTTP://WWW.MILOHISTORICAL.ORG,-68.98656,45.2548,23 PARK ST,MILO,ME,4463
8402300281,HSC,LUBEC LANDMARKS,2077332197,HTTP://LUBECLANDMARKS.ORG/,-66.98344,44.86139,50 WATER ST,LUBEC,ME,4652
8402300282,HSC,SOUTHPORT HISTORICAL SOCIETY, , ,-69.66215,43.82118,PO BOX 3,SOUTHPORT,ME,4576
8402300285,HSC,WALDOBOROUGH HISTORICAL SOCIETY,2077900477,HTTP://WWW.WALDOBOROHISTORY.US/,-69.37093,44.10212,1164 MAIN ST,WALDOBORO,ME,4572
8402300286,HSC,DOUBLING POINT LIGHT,2074434650, ,-69.77158,43.88887,21 SPRING COVE RD,ARROWSIC,ME,4530
8402300288,HSC,ABBOT HISTORICAL SOCIETY,2078763073, ,-69.45017,45.17796,3 MONUMENT ROAD,ABBOT,ME,4406
8402300290,HSC,CENTER THEATRE,2075648943,HTTP://WWW.CENTERTHEATRE.ORG/,-69.22832,45.18366,20 E MAIN ST,DOVR FOXCROF,ME,4426
8402300291,HSC,MEXICO HISTORICAL SOCIETY,2073648333,HTTP://WWW.DAIGLE.US,-70.53401,44.55137,3 OXFORD ST,MEXICO,ME,4257
8402300292,HSC,BROOKSVILLE HISTORICAL SOCIETY,2073268681,HTTP://WWW.BROOKSVILLEHISTORICALSOCIETY.ORG/,-68.73073,44.3723,ROUTE 176 BROOKSVILLE CORNER,BROOKSVILLE,ME,4617
8402300294,HSC,NEWCASTLE HISTORICAL SOCIETY,2075635741,HTTP://WWW.NEWCASTLEMAINEHISTORICALSOCIETY.ORG/,-69.54358,44.02995,64 MAIN ST,NEWCASTLE,ME,4553
8402300296,HSC,DEXTER HISTORICAL SOCIETY,7344262519, ,-69.30385,45.02302,PO BOX 481,DEXTER,ME,4930
8402300299,HSC,BREMEM TOWN HOUSE ASSOCIATION, , ,-69.43696,44.00624,PO BOX 240,BREMEN,ME,4551
8402300301,HSC,MADISON HISTORICAL AND GENEALOGICAL SOCIETY, ,HTTP://WWW.MCGHS.INFO/,-69.74358,44.81984,555 E MADISON RD,MADISON,ME,4950
8402300302,HSC,OLD WALPOLE MEETING HOUSE,2075632524,HTTP://OLDWALPOLEMEETINGHOUSE.ORG/,-69.68777,43.98175,WAPOLE MEETINGHOUSE ROAD,WISCASSET,ME,4578
8402300303,HSC,BUXTON-HOLLIS HISTORICAL SOCIETY,2079291684,HTTP://WWW.BUXTONHOLLISHISTORICAL.ORG,-70.53812,43.64611,100 MAIN ST BAR MILLS,BUXTON,ME,4093
8402300305,HSC,ROBBINSTON HISTORICAL SOCIETY,2074541264, ,-67.13979,45.06557,PO BOX 39,ROBBINSTON,ME,4671
8402300306,HSC,MADRID HISTORICAL SOCIETY,2076392162, ,-70.36518,44.83731,PLEASANT STREET,PHILLIPS,ME,4966
8402300307,HSC,EMBDEN HISTORICAL SOCIETY,2076352231, ,-69.93465,44.94229,445 E SHORE RD,EMBDEN,ME,4958
8402300308,HSC,ANSON HISTORICAL SOCIETY, , ,-69.95174,44.78045,PO BOX 572,ANSON,ME,4911
8402300309,HSC,CAMBRIDGE HISTORICAL SOCIETY, , ,-69.45222,45.03951,PO BOX 77,CAMBRIDGE,ME,4923
8402300310,HSC,SEARSPORT HISTORICAL SOCIETY,2075482474,HTTP://WWW.SEARSPORTHISTORICALSOCIETY.ORG/,-68.88547,44.46673,4 SEARS ISLAND ROAD,SEARSPORT,ME,4974
8402300311,HSC,WEST BATH HISTORICAL SOCIETY,2074434449, ,-69.82758,43.90766,PO BOX 394,BATH,ME,4530
8402300312,HSC,LIGHTHOUSE EDUCATION & NAUTICAL STUDIES,2078622000, ,-68.84038,44.73491,83 MAIN RD S,HAMPDEN,ME,4444
8402300316,HSC,PINELAND FARMS,2076884800,HTTP://WWW.PINELANDFARMS.ORG,-70.24952,43.90887,32 FARM VIEW DR,NEW GLOUCEST,ME,4260
8402300317,HSC,DAMARISCOTTA HISTORICAL SOCIETY, , ,-69.50438,44.0335,PO BOX 1154,DAMARISCOTTA,ME,4543
8402300319,HSC,MAINE FRANCO-AMERICAN GENEALOGICAL SOCIETY,2077863327, ,-70.22684,44.10305,217 TURNER ST,AUBURN,ME,4241
8402300323,HSC,EXETER HISTORICAL SOCIETY, , ,-69.12838,44.96182,PO BOX 141,EXETER,ME,4435
8402300324,HSC,HARTLAND HISTORICAL SOCIETY, , ,-69.48701,44.87596,PO BOX 173,HARTLAND,ME,4943
8402300325,HSC,EASTPORT FOR PRIDE,2078532400, ,-66.98447,44.90504,93 WATER STREET,EASTPORT,ME,4631
8402300326,HSC,MONTVILLE HISTORICAL SOCIETY, , ,-69.26441,44.38011,19 S TROTTING PARK RD,MONTVILLE,ME,4941
8402300329,HSC,CAMDEN-ROCKPORT HISTORICAL SOCIETY,2072362257,HTTP://WWW.CONWAYHOUSE.ORG,-69.10228,44.17673,PO BOX 747,ROCKPORT,ME,4856
8402300331,HSC,WATERVILLE HISTORICAL SOCIETY,2078729439, ,-69.63464,44.54665,62 SILVER STREET UNIT B,WATERVILLE,ME,4901
8402300333,HSC,SCARBOROUGH HISTORICAL SOCIETY,2078859997, ,-70.39598,43.56425,647 U S ROUTE 1,SCARBOROUGH,ME,4070
8402300334,HSC,DEER ISLE-STONINGTON HISTORICAL SOCIETY,2073486400,HTTP://WWW.DIS-HISTORICALSOCIETY.ORG,-68.70522,44.20422,416 SUNSET ROAD,DEER ISLE,ME,4627
8402300336,HSC,CHESTERVILLE CENTER UNION MEETING HOUSE, , ,-70.08534,44.55483,72 DUTCH GAP RD,CHESTERVILLE,ME,4938
8402300337,HSC,LEE HISTORICAL SOCIETY AND MUSEUM, , ,-68.29528,45.36522,RR 1 BOX 1025,LEE,ME,4455
8402300340,HSC,MUSSEL RIDGE HISTORICAL SOCIETY,2075949263, ,-69.08737,44.06949,PO BOX 131,OWLS HEAD,ME,4854
8402300341,HSC,SOUTH SOLON HISTORICAL SOCIETY,2076432275,HTTP://WWW.SOLON.GOVOFFICE.COM/INDEX.ASP?TYPE=B_BASIC&SEC=%7BE201F2FD-6C57-4D09-8C1B-D39AD130118C%7D,-69.69729,44.78037,1 MEETING HOUSE ROAD,SKOWHEGAN,ME,4976
8402300343,HSC,SEDGWICK-BROOKLIN HISTORICAL SOCIETY,2073598086, ,-68.61461,44.3099,575 NORTH SEDGWICK ROAD,SEDGWICK,ME,4676
8402300344,HSC,BLUE HILL HISTORICAL SOCIETY,2073268250,HTTP://BLUEHILLHISTORY.ORG/,-68.5878,44.41721,PO BOX 710,BLUE HILL,ME,4614
8402300345,HSC,FALMOUTH HISTORICAL SOCIETY,2077814727,HTTPS://FALMOUTHHISTORICALSOCIETY.WILDAPRICOT.ORG/,-70.2338,43.7139,190 US RTE 1,FALMOUTH,ME,4105
8402300346,HSC,BUCKSPORT HISTORICAL SOCIETY,2074690568, ,-68.77385,44.60407,MAIN ST,BUCKSPORT,ME,4416
8402300348,HSC,PEJEPSCOT HISTORICAL SOCIETY,2077296606,HTTP://WWW.CURTISLIBRARY.COM,-69.96348,43.91393,159 PARK ROW,BRUNSWICK,ME,4011
8402300349,HSC,PHILLIPS HISTORICAL SOCIETY,2076393352, ,-70.36081,44.85164,459 PARK ST,PHILLIPS,ME,4966
8402300350,HSC,PARIS HILL HISTORICAL SOCIETY, , ,-70.49832,44.26195,PO BOX 51,PARIS,ME,4271
8402300352,HSC,SOUTH PORTLAND HISTORICAL SOCIETY,2077677299,HTTP://WWW.SOUTHPORTLAND.ORG/,-70.23448,43.64814,55 BUGLIGHT RD,S PORTLAND,ME,4106
8402300353,HSC,CHERRYFIELD-NARRAGUAGUS HISTORICAL SOCIETY,2075462076,HTTP://WWW.CHERRYFIELDHISTORICAL.COM/,-67.94007,44.60482,88 RIVER ROAD,CHERRYFIELD,ME,4622
8402300354,HSC,POWNAL SCENIC AND HISTORICAL SOCIETY, , ,-70.16817,43.92496,584 POLAND RANGE RD,POWNAL,ME,4069
8402300355,HSC,NORTH YARMOUTH HISTORICAL SOCIETY, ,HTTP://NORTHYARMOUTHHISTORICAL.ORG/,-70.23112,43.84835,10 VILLAGE SQUARE RD,N YARMOUTH,ME,4097
8402300357,HSC,HAMPDEN HISTORICAL SOCIETY,2078622027, ,-68.84038,44.73491,83 MAIN RD S,HAMPDEN,ME,4444
8402300358,HSC,WILTON HISTORICAL SOCIETY,2074915996,HTTP://WWW.THEWILTONFARMANDHOMEMUSEUM.ORG/INDEX.HTML,-70.23618,44.59243,10 CANAL STREET,WILTON,ME,4294
8402300360,HSC,MAINE SOCIETY FOR HISTOTECHNOLOGY, ,HTTP://WWW.MEHISTO.ORG/,-69.00874,44.97911,PO BOX 442,CORINTH,ME,4427
8402300361,HSC,CARIBOU HISTORICAL SOCIETY,2074982556, ,-67.99217,46.80209,1033 PRESQUE ISLE RD,CARIBOU,ME,4736
8402300363,HSC,WASHINGTON HISTORICAL SOCIETY, , ,-69.3866,44.26738,PO BOX 333,WASHINGTON,ME,4574
8402300364,HSC,PRESERERVATION OF BROOKSVILLES OLD BAPTIST CHURCH, , ,-68.73942,44.40474,1886 COASTAL RD,BROOKSVILLE,ME,4617
8402300373,HSC,DENNYS RIVER HISTORICAL SOCIETY,2077263905,HTTP://DENNYSRIVERHISTORICALSOCIETY.ORG/,-67.20085,44.89429,80 BELYEA RD,EDMUNDS TWP,ME,4628
8402300374,HSC,GOOD LIFE CENTER,2073268211,HTTP://GOODLIFE.ORG/,-68.81649,44.32633,372 HARBORSIDE ROAD,HARBORSIDE,ME,4642
8402300375,HSC,FINNISH HERITAGE HOUSE,2073548026,HTTP://WWW.FINNHERITAGE.ORG/,-69.1641,44.07414,172 ST GEORGE ROAD,SOUTH THOMASTON,ME,4858
8402300376,HSC,TRESCOTT HISTORICAL SOCIETY,2077335548,HTTP://WWW.TRESCOTTHISTORICALSOCIETY.ORG/,-67.25702,44.75896,PO BOX 1,WHITING,ME,4691
8402300377,HSC,STETSON HISTORICAL SOCIETY, , ,-69.14589,44.899,24 STETSON ROAD,STETSON,ME,4488
8402300378,HSC,BELGRADE HISTORICAL SOCIETY, ,HTTP://BELGRADEHISTORICALSOCIETY.ORG/,-69.83398,44.4888,PO BOX 36A,BELGRADE,ME,4917
8402300383,HSC,MAINE GRANITE INDUSTRY HISTORICAL SOCIETY,2072447299,HTTP://WWW.MAINEGRANITEINDUSTRY.ORG,-68.34638,44.34111,70 BEECH HILL CROSS RD,MOUNT DESERT,ME,4660
8402300384,HSC,THOMPSON ICE HOUSE PRESERVATION CORP,2076448808,HTTP://WWW.THOMPSONICEHOUSE.COM/,-69.57032,43.86447,MAINE 129,SOUTH BRISTOL,ME,4568
8402300385,HSC,DOWNEAST RAIL HERITAGE PRESERVATION TRUST,8664497245, ,-68.20473,44.38941,109 MAIN ST,BAR HARBOR,ME,4609
8402300386,HSC,GRAY HISTORICAL SOCIETY,2076574783,HTTP://GRAYHISTORICAL.ORG/,-70.34329,43.8855,GRAY CORNERS,GRAY,ME,4039
8402300387,HSC,JONESPORT HISTORICAL SOCIETY,2074973003, ,-67.60966,44.5304,162 MAIN STREET,JONESPORT,ME,4649
8402300392,HSC,BROOKS HISTORICAL SOCIETY,2077223633, ,-69.12312,44.55485,79 MOOSEHEAD TRAIL,BROOKS,ME,4921
8402300393,HSC,GILEAD HISTORICAL SOCIETY,9107626301, ,-70.97227,44.3945,14 DEPOT ST,GILEAD,ME,4217
8402300394,HSC,SOUTHWEST HARBOR HISTORICAL SOCIETY, ,HTTP://SWHHS.ORG/,-68.32849,44.26341,26 HILLCREST CIR,SOUTHWEST HB,ME,4679
8402300396,HSC,SANFORD-SPRINGVALE HISTORICAL SOCIETY,2074901028,HTTP://WWW.SANFORDHISTORY.ORG/,-70.79567,43.46324,505 MAIN STREET,SPRINGVALE,ME,4083
8402300397,HSC,CLIFF ISLAND HISTORICAL SOCIETY, , ,-70.10849,43.69525,PO BOX 82,CLIFF ISLAND,ME,4019
8402300401,HSC,KNOX HISTORICAL SOCIETY, , ,-69.24727,44.51029,161 MORSE RD,KNOX,ME,4986
8402300402,HSC,NEW GLOUCESTER MAINE HISTORICAL SOCIETY, , ,-70.29817,43.96352,PO BOX 531,NEW GLOUCEST,ME,4260
8402300404,HSC,LIBERTY HALL, ,HTTP://WWW.LIBERTYHALLMAINE.ORG/,-67.38822,44.67011,PO BOX 22,MACHIASPORT,ME,4655
8402300408,HSC,BRADFORD HERITAGE MUSEUM AND HISTORICAL SOCIETY, , ,-68.95956,45.11397,1163 MAIN ROAD,BRADFORD,ME,4410
8402300409,HSC,MACHIASPORT HISTORICAL SOCIETY,2072558461,HTTP://WWW.MACHIASPORTHISTORICALSOCIETY.ORG/,-67.39384,44.69676,344 PORT ROAD,MACHIASPORT,ME,4655
8402300410,HSC,OLD YORK HISTORICAL SOCIETY,2073634974,HTTP://WWW.OLDYORK.ORG,-70.65273,43.15514,PO BOX 312,YORK,ME,3909
8402300411,HSC,EDDINGTON HISTORICAL SOCIETY,2078435233, ,-68.61912,44.81134,906 MAIN RD,EDDINGTON,ME,4428
8402300412,HSC,ORONO HISTORICAL SOCIETY, , ,-68.68011,44.88677,PO BOX 324,ORONO,ME,4473
8402300413,HSC,HEBRON HISTORICAL SOCIETY, ,HTTP://WWW.HEBRONMEHISTSOC.ORG/,-70.40601,44.19734,358 PARIS ROAD,HEBRON,ME,4238
8402300414,HSC,WESTBROOK HISTORICAL SOCIETY,2078545588,HTTP://WWW.WESTBROOKHISTORICALSOCIETY.ORG,-70.35937,43.68987,426 BRIDGE ST,WESTBROOK,ME,4092
8402300415,HSC,GUILFORD HISTORICAL SOCIETY, , ,-69.40009,45.16283,10 NORTH MAIN ST,GUILFORD,ME,4443
8402300416,HSC,PLEASANT RIVER HISTORICAL SOCIETY, ,HTTP://WWW.ADDISONMAINE.ORG/ORGANIZATIONS/HISTORICAL/HISTORICAL.HTML,-67.71218,44.57161,PO BOX 300,ADDISON,ME,4606
8402300417,HSC,NORTH HAVEN HISTORICAL SOCIETY, ,HTTP://WWW.NORTHHAVENMAINEHISTORICALSOCIETY.ORG/,-68.85887,44.15848,PO BOX 322,NORTH HAVEN,ME,4853
8402300418,HSC,CHEBEAGUE ISLAND HISTORICAL SOCIETY,2078465237,HTTP://CHEBEAGUE.CHEBEAGUE.LIB.ME.US/CIHS/MUSEUM/HOME.HTML,-70.11474,43.73669,PO BOX 28,CHEBEAGUE,ME,4017
8402300419,HSC,SALMON BROOK HISTORICAL SOCIETY OF WASHBURN,2074554339, ,-68.15649,46.78868,1267 MAIN STREET,WASHBUR,ME,4786
8402300421,HSC,WARREN HISTORICAL SOCIETY,2072732726,HTTP://WWW.HUGEDOMAINS.COM/DOMAIN_PROFILE.CFM?D=WARRENHISTORICALSOCIETY&E=COM,-69.2433,44.12007,225 MAIN ST,WARREN,ME,4864
8402300423,HSC,FAIRFIELD HISTORICAL SOCIETY,2074532998,HTTP://FAIRFIELDMEHISTORICALSOCIETY.NET,-69.63007,44.60397,PO BOX 362,FAIRFIELD,ME,4937
8402300425,HSC,ASSOCIATION CULTURELLE ET HISTORIQUE DU MONT-CARMEL,2078953339,HTTP://WWW.MUSEECULTUREL.ORG/,-68.12145,47.27452,PO BOX 150,GRAND ISLE,ME,4746
8402300428,HSC,BATH HISTORICAL SOCIETY, , ,-69.81532,43.91586,33 SUMMER ST,BATH,ME,4530
8402300429,HSC,NORTH BERWICK HISTORICAL SOCITY,2076767600,HTTP://NORTHBERWICKHISTORICALSOCIETY.COM/,-70.74749,43.29804,27 OLD COUNTY RD,NORTH BERWICK,ME,3906
8402300430,HSC,ROCKVILLE COMMUNITY CHAPEL ASSOCIATION, , ,-69.11811,44.15591,5 GURNEY ST,ROCKPORT,ME,4856
8402300431,HSC,HAYSTACK HISTORICAL SOCIETY,2077644111, ,-68.13997,46.68214,1565 MAIN STREET,MAPLETON,ME,4757
8402300433,HSC,NORTH BRIDGTON HISTORICAL SOCIETY,2076473699,HTTP://BRIDGTONHISTORY.ORG/,-70.73746,44.04299,P O BOX 44 5 GIBBS AVENUE,NORTH BRIDGTON,ME,4057
8402300439,HSC,PALERMO HISTORICAL SOCIETY, ,HTTP://WWW.PALERMOHISTORICAL.ORG/,-69.42174,44.39992,PO BOX 13,PALERMO,ME,4354
8402300440,HSC,BOOTHBAY REGION HISTORICAL SOCIETY,2076330820, ,-69.62568,43.85639,72 OAK STREET,BOOTHBAY HAR,ME,4538
8402300442,HSC,JEFFERSON HISTORICAL SOCIETY,2075493415, ,-69.49791,44.21196,PO BOX 302,JEFFERSON,ME,4348
8402300443,HSC,BORDER HISTORICAL SOCIETY, ,HTTP://WWW.BORDERHISTORICALSOCIETY.COM/,-66.99342,44.90624,74 WASHINGTON ST,EASTPORT,ME,4631
8402300446,HSC,ROW HOUSE, ,HTTP://ROWHOUSEINC.ORG/,-69.79881,44.28829,PO BOX 3,HALLOWELL,ME,4347
8402300447,HSC,GORHAM HISTORICIAL SOCIETY,2078394700,HTTP://WWW.GORHAMHISTORICAL.COM/,-70.44341,43.6803,28 SCHOOL STREET,GORHAM,ME,4038
8402300448,HSC,SAGADAHOC PRESERVATION,2074432174,HTTP://SAGADAHOCPRESERVATION.ORG/,-69.81628,43.91678,880 WASHINGTON ST,BATH,ME,4530
8402300449,HSC,NORDICA MEMORIAL ASSOCIATION,2077782042, ,-70.14829,44.69746,116 NORDICA LANE,FARMINGTON,ME,4938
8402300450,HSC,KENNEBEC HISTORICAL SOCIETY,2076227718,HTTP://WWW.KENNEBECHISTORICAL.ORG/,-69.7832,44.31623,107 WINTHROP STREET,AUGUSTA,ME,4332
8402300451,HSC,MADAWASKA HISTORICAL SOCIETY, , ,-68.32099,47.35508,393 MAIN ST,MADAWASKA,ME,4756
8402300452,HSC,MOOSEHEAD HISTORICAL SOCIETY,2076952909,HTTP://MOOSEHEADHISTORY.ORG/,-69.55897,45.49409,444 PRITHAM AVE,GREENVILLE,ME,4441
8402300453,HSC,JAY HISTORICAL SOCIETY,2078974876,HTTP://JAY-MAINE.ORG/404.HTML,-70.21465,44.5034,287 MAIN ST,JAY,ME,4239
8402300454,HSC,SULLIVAN-SORRENTO HISTORICAL SOCIETY,2074220995,HTTP://SULLIVANSORRENTOHISTORY.ORG/,-68.1738,44.52732,PO BOX 44,SULLIVAN,ME,4664
8402300455,HSC,LITTLE RED SCHOOLHOUSE MUSEUM, , ,-70.12345,44.65862,PO BOX 62,FARMINGTON,ME,4938
8402300456,HSC,RANGELEY LAKES REGION HISTORICAL SOCIETY,2078643091,HTTPS://WWW.FACEBOOK.COM/RANGELEYHISTSOCIETY,-70.65558,44.96411,MAIN STREET,RANGELEY,ME,4970
8402300459,HSC,BRIDGTON HISTORICAL SOCIETY,2076473699,HTTP://BRIDGTONHISTORY.ORG/,-70.72163,44.05436,GIBBS AVE,BRIDGTON,ME,4009
8402300461,HSC,WATERFORD HISTORICAL SOCIETY, ,HTTP://WATERFORDHISTORICALSOCIETY.ORG/,-70.71707,44.19284,4490 HATCHERY RD,WATERFORD,ME,4088
8402300462,HSC,APPLETON HISTORICAL SOCIETY,9207359370,HTTP://WWW.FOCOL.ORG/APPLETONHISTORY/,-69.24966,44.28864,2916 SENNEBEC RD,APPLETON,ME,4862
8402300464,HSC,KINGFIELD HISTORICAL SOCIETY,2072654032, ,-70.2303,45.02574,MAIN STREET,KINGFIELD,ME,4947
8402300466,HSC,UNION HISTORICAL SOCIETY,2077855444,HTTP://WWW.UNIONHISTORICALSOCIETY.ORG,-69.27528,44.25368,343 COMMON ROAD P O BOX 154,UNION,ME,4862
8402300467,HSC,ORLAND HISTORICAL SOCIETY,2075985741, ,-68.69786,44.56855,PO BOX 242,ORLAND,ME,4472
8402300469,HSC,SIDNEY HISTORICAL SOCIETY,2077248032, ,-69.72886,44.40651,2455 WEST RIVER ROAD,SIDNEY,ME,4330
8402300470,HSC,SWANS ISLAND METHODIST CHURCH, , ,-68.42572,44.15965,PO BOX 144,SWANS ISLAND,ME,4685
8402300473,HSC,GREATER GRAND ISLE HISTORICAL SOCIETY, ,HTTP://WWW.GIMEHISTORICAL.ORG/,-68.12145,47.27452,PO BOX 124,GRAND ISLE,ME,4746
8402300474,HSC,DOODLETOWN, , ,-70.34988,43.69532,114 E BRIDGE ST,WESTBROOK,ME,4092
8402300477,HSC,MAINE GARDEN RAILWAY SOCIETY, , ,-70.51821,43.65049,82 CARLL RD,BUXTON,ME,4093
8402300479,HSC,BROOKS PRESERVATION SOCIETY,2077223899,HTTP://BROOKSPRESERVATION.ORG/,-69.12174,44.55145,31 VETERANS HWY,BROOKS,ME,4921
8402300481,HSC,STRATHGLASS PARK PRESERVATION SOCIETY, ,HTTP://STRATHGLASSPRESERVATION.COM/,-70.56521,44.5427,PO BOX 65,RUMFORD,ME,4276
8402300482,HSC,FRANCES PERKINS CENTER,2075633374,HTTP://FRANCESPERKINSCENTER.ORG,-69.53201,44.033,170 MAIN STREET,DAMARISCOTTA,ME,4543
8402300484,HSC,SWANS ISLAND LIGHTHOUSE, , ,-68.42572,44.15965,TOWN OFFICE 125 HARBOR R,SWANS ISLAND,ME,4685
8402300485,HSC,NORWAY LANDMARKS PRESERVATION SOCIETY, ,HTTP://WWW.GINGERBREADHOUSENORWAY.ORG/,-70.57088,44.21982,PO BOX 525,NORWAY,ME,4268
8402300487,HSC,BURNT COVE CHURCH COMMUNITY CENTER, , ,-68.66485,44.16828,PO BOX 56,STONINGTON,ME,4681
8402300491,HSC,SMITHFIELD MAINE HISTORICAL SOCIETY, , ,-69.78635,44.65842,136 QUAKER LN,SMITHFIELD,ME,4978
8402300493,HSC,MANCHESTER HISTORICAL SOCIETY, , ,-69.86369,44.32805,PO BOX 121,MANCHESTER,ME,4351
8402300495,HSC,COLONIAL THEATER, ,HTTP://WWW.AUGUSTACOLONIALTHEATER.ORG/,-69.77316,44.31803,137 WATER STREET,AUGUSTA,ME,4338
8402300497,HSC,CENTRAL AROOSTOOK HISTORICAL SOCIETY, , ,-67.86087,46.53859,PO BOX 293,MARS HILL,ME,4758
8402300498,HSC,PORTAGE LAKE HISTORICAL SOCIETY,3306443748,HTTP://WWW.PORTAGELAKESHISTORICALSOCIETY.COM/,-68.4792,46.79453,PO BOX 65,PORTAGE LAKE,ME,4768
8402300500,HSC,OLD BRISTOL HISTORICAL SOCIETY, ,HTTPS://OLDBRISTOLHISTORICALSOCIETY.WORDPRESS.COM/,-69.50544,43.96386,653 HARRINGTON ROAD,PEMAQUID [FALLS],ME,4539
8402300501,HSC,RAYMOND-CASCO HISTORICAL SOCIETY,2076554742, ,-70.44593,43.94057,401 WEBBS MILLS ROAD,RAYMOND,ME,4071
8402300502,HSC,MATINICUS ISLAND HISTORICAL SOCIETY,2073663941,HTTP://MATINICUSHISTORY.ORG,-68.89397,43.8594,C,MATINICUS ISLAND,ME,4851
8402300503,HSC,VETERANS MEMORIAL PARK ASSOCIATION, , ,-68.01986,46.86824,PO BOX 453,CARIBOU,ME,4736
8402300505,HSC,SOUTH BRISTOL HISTORICAL SOCIETY,2073150558,HTTP://WWW.SOUTHBRISTOLHISTORICALSOCIETY.ORG/,-69.55842,43.86181,2124 STATE ROUTE 129,SOUTH BRISTOL,ME,4568
8402300506,HSC,BEALS HISTORICAL SOCIETY,2074972675,HTTP://WWW.MOOSABEC.ORG,-67.61246,44.52043,PO BOX 280,BEALS,ME,4611
8402300508,HSC,PORTLAND VETERAN FIREMANS ASSOCIATION, , ,-70.26237,43.66057,PO BOX 1743,PORTLAND,ME,4104
8402300509,HSC,ARNOLD EXPEDITION HISTORICAL SOCIETY, , ,-70.46542,43.60628,60 BURNHAM ROAD,SCARBOROUGH,ME,4074
8402300510,HSC,SUMNER HISTORICAL SOCIETY, , ,-70.35462,44.32452,PO BOX 229,BUCKFIELD,ME,4220
8402300512,HSC,GREENVILLE JUNCTION DEPOT FRIENDS,2076910731,HTTP://WWW.GREENVILLEDEPOT.ORG/,-69.55897,45.49409,PO BOX 16,GREENVILLE,ME,4441
8402300514,HSC,CATERPILLAR HILL INITIATIVE,2073594600,HTTP://CATERPILLARHILLINITIATIVE.ORG/,-68.6746,44.32183,328 CATERPILLAR HILL RD,SEDGWICK,ME,4676
8402300515,HSC,MACHIAS HISTORICAL SOCIETY, , ,-67.47727,44.71184,PO BOX 754,MACHIAS,ME,4654
8402300516,HSC,BURNT ISLAND LIGHT,2076337239,HTTP://WWW.KEEPERSOFBURNTISLANDLIGHT.COM/,-69.66572,43.83675,PO BOX 738,BOOTHBAY HBR,ME,4538
8402300517,HSC,WINTHROP MAINE HISTORICAL SOCIETY, , ,-69.95875,44.31059,PO BOX 33,WINTHROP,ME,4364
8402300518,HSC,HISTORIC DOWNSTREET, , ,-68.82989,44.04983,15 MAIN ST,VINALHAVEN,ME,4863
8402300519,HSC,UPTON HISTORICAL SOCIETY, , ,-70.9901,44.66167,367 BACK ST,UPTON,ME,4261
8402300520,HSC,MASONIC TEMPLE FOUNDATION,2077726882,HTTP://WWW.THEMASONIC.COM,-70.2577,43.65863,415 CONGRESS STREET,PORTLAND,ME,4101
8402300524,HSC,PETITE PLAISANCE CONSERVATION FUND, ,HTTP://WWW.PETITEPLAISANCECONSERVATIONFUND.ORG/,-68.29004,44.29418,PO BOX 1112,NORTHEAST HB,ME,4662
8402300527,HSC,CORNISH VETERANS MONUMENT ORGANIZATION, , ,-70.8227,43.78504,277 SOKOKIS TRL,CORNISH,ME,4020
8402300528,HSC,OLD CANADA ROAD HISTORICAL SOCIETY,2076723440, ,-69.89381,45.05847,PO BOX 742,BINGHAM,ME,4920
8402300529,HSC,WELD HISTORICAL SOCIETY, , ,-70.43241,44.7019,PO BOX 31,WELD,ME,4285
8402300530,HSC,MOUNT DESERT ISLAND HISTORICAL SOCIETY,2072769323,HTTP://WWW.MDIHISTORY.ORG,-68.30446,44.35988,373 SOUND DRIVE,MOUNT DESERT,ME,4660
8402300531,HSC,WATERVILLE OPERA HOUSE ASSOCIATION,2078737000, ,-69.63219,44.55738,93 MAIN STREET,WATERVILLE,ME,4901
8402300533,HSC,GREATER RUMFORD AREA HISTORICAL SOCIETY,2073642540,HTTP://WWW.RUMFORDMAINE.NET/HISTORY/HISTORY.HTM,-70.54616,44.54665,145 CONGRESS STREET,RUMFORD,ME,4276
8402300534,HSC,WESTERN SOMERSET HISTORICAL SOCIETY, , ,-70.07179,44.9422,PO BOX 1,NORTH NEW PORTLAND,ME,4961
8402300535,HSC,SEBAGO HISTORICAL SOCIETY, , ,-70.72989,43.88708,347 CONVENE AVENUE,SEBAGO,ME,4029
8402300536,HSC,BIDDEFORD HISTORICAL SOCIETY,2079349319, ,-70.37786,43.51855,4 PORTLAND AVE,OLD ORCHARD BEACH,ME,4005
8402300538,HSC,OTIS HISTORICAL SOCIETY,2075372211, ,-68.42974,44.67557,6 TATE ROAD,OTIS,ME,4605
8402300539,HSC,TRENTON HISTORICAL SOCIETY,2076672930,HTTP://WWW.TRENTONME.COM/HISTORICAL-SOCIETY,-68.36964,44.44721,1007 BAR HARBOR RD,TRENTON,ME,4605
8402300540,HSC,METIS EASTERN TRIBAL INDIAN SOCIETY OF MAINE, , ,-70.77576,43.71848,13 LOMBARD HILL RD,LIMERICK,ME,4048
8402300541,HSC,BROWNVILLE-BROWNVILLE JCT. HISTORICAL SOCIETY,2079658584, ,-69.06071,45.39163,430 DAVIS STREET,BROWNVILLE,ME,4414
8402300542,HSC,PORTLAND FISHERMENS MONUMENT COMMISSION, , ,-70.17758,43.79639,PO BOX 650,YARMOUTH,ME,4096
8402300543,HSC,BEATRIX FARRAND SOCIETY,2072880237,HTTP://WWW.BEATRIXFARRANDSOCIETY.ORG/,-68.32394,44.42901,475 BAY VIEW DR,BAR HARBOR,ME,4660
8402300544,HSC,HERITAGE CENTER AT MILL PARK, , ,-69.77433,44.33419,53 BLUEBERRY HILL LN,AUGUSTA,ME,4330
8402300549,HSC,PATTEN HISTORICAL SOCIETY, , ,-68.44722,45.99941,38 MAIN STREET,PATTEN,ME,4765
8402300550,HSC,HOLDEN HISTORICAL SOCIETY,2078435151, ,-68.63883,44.72782,PO BOX 41,HOLDEN,ME,4429
8402300551,HSC,ARUNDEL HISTORICAL SOCIETY,2072839699,HTTP://WWW.ARUNDELHISTORICALSOCIETY.ORG,-70.52815,43.43419,3 TALBOT DR,ARUNDEL,ME,4046
8402300552,HSC,SMYRNA MERRILL HISTORICAL SOCIETY, , ,-68.16544,46.1463,PO BOX 21,SMYRNA MILLS,ME,4780
8402300553,HSC,SWAN ISLAND,2075264025, ,-68.45092,44.14955,433 HARBOR ROAD,SWANS ISLAND,ME,4357
8402300554,HSC,ST JOHN HISTORICAL SOCIETY, ,HTTP://STJOHNHISTORICALSOCIETY.ORG,-68.70557,47.23678,1258 ST JOHN RD,ST JOHN PLT,ME,4743
8402300562,HSC,ACADIA NATIONAL PARK,2072888729, ,-68.25552,44.3969,P O BOX 177,BAR HARBOR,ME,4609
8402400003,HSC,UNION MILLS HOMESTEAD COMPLEX,4108482288,HTTP://WWW.UNIONMILLS.ORG,-77.0209,39.66799,3311 LITTLESTOWN PIKE,WESTMINSTER,MD,21158
8402400006,HSC,WILLIAM PACA HOUSE AND GARDEN,4102635553,HTTP://WWW.ANNAPOLIS.ORG,-76.48804,38.97954,186 PRINCE GEORGE ST,ANNAPOLIS,MD,21401
8402400015,HSC,SHADY SIDE RURAL HERITAGE SOCIETY,4108674486, ,-76.51177,38.84861,1418 EAST WEST SHADY SIDE RD,SHADY SIDE,MD,20764
8402400016,HSC,SHARPTOWN HISTORICAL SOCIETY,4108832269, ,-75.7193,38.53989,408 MAIN ST,SHARPTOWN,MD,21861
8402400022,HSC,ST. MARY'S COUNTY HISTORICAL SOCIETY,3014752467,HTTP://STMARYSHISTORY.ORG/,-76.62849,38.27196,PO BOX 212,LEONARDTOWN,MD,20650
8402400025,HSC,SOMERSET COUNTY HISTORICAL SOCIETY,4106512238,HTTP://WWW.SOMERSETCOUNTYHISTORICALSOCIETY.ORG,-75.708,38.20583,11736 MASION ST,PRINCESS ANNE,MD,21853
8402400028,HSC,ROBERT LONG HOUSE,4106756750, ,-76.59129,39.2826,812 S ANN ST,BALTIMORE,MD,21231
8402400037,HSC,ROGER BROOKE TANEY HOUSE,3016631188,HTTP://HSFCINFO.ORG/,-77.41634,39.4119,121 S BENTZ ST,FREDERICK,MD,21701
8402400038,HSC,PINEY POINT LIGHT HOUSE,3019941471, ,-76.52757,38.13643,44701 LIGHTHOUSE RD,PINEY POINT,MD,20674
8402400039,HSC,NATURAL HISTORY SOCIETY OF MARYLAND,4108825376,HTTP://MARYLANDNATURE.ORG/,-76.54171,39.33677,PO BOX 18750,BALTIMORE,MD,21206
8402400040,HSC,MILLER HOUSE & BEAVER CREEK SCHOOL MUSEUM,3017978782, ,-77.72339,39.64339,135 W WASHINGTON ST,HAGERSTOWN,MD,21740
8402400056,HSC,HISTORICAL SOCIETY OF CARROLL COUNTY,4108486494,HTTP://WWW.HSCCMD.ORG,-76.99008,39.56928,210 E MAIN ST,WESTMINISTER,MD,21157
8402400059,HSC,LOST TOWNS PROJECT-ANN ARUNDEL COUNTY, , ,-76.56077,38.97417,2664 RIVA RD 4TH FLR,ANNAPOLIS,MD,21401
8402400060,HSC,HISTORIC LONDON TOWN AND GARDENS,4102221919,HTTP://WWW.HISTORICLONDONTOWN.COM/,-76.53879,38.93987,839 LONDONTOWN RD,EDGEWATER,MD,21037
8402400061,HSC,J. MILLARD TAWES HISTORICAL MUSEUM,4109682501, ,-75.84106,37.98892,3 9TH ST,CRISFIELD,MD,21817
8402400063,HSC,HISTORIC SOTTERLEY,3013732280,HTTP://WWW.SOTTERLEY.ORG,-76.5654,38.3456,44300 SOTTERLEY LANE,HOLLYWOOD,MD,20636
8402400070,HSC,GEDDES-PIPER HOUSE,4107783499, ,-76.06431,39.20876,101 CHURCH ALLEY,CHESTERTOWN,MD,21620
8402400071,HSC,GALESVILLE HERITAGE HOUSE,4108679499, ,-76.5454,38.84404,PO BOX 373,GALESVILLE,MD,20765
8402400073,HSC,POPLAR HILL MANSION,4107491776,HTTP://WWW.POPLARHILLMANSION.ORG/FILENOTFOUND.HTML?ASPXERRORPATH=/HOME.ASPX,-75.5958,38.37142,117 ELIZABETH ST,SALISBURY,MD,21801
8402400084,HSC,COSTEN HOUSE, , ,-75.56688,38.07418,206 MARKET STREET,POCOMOKE CITY,MD,21851
8402400087,HSC,CHASE HOME,4102632723, ,-76.48852,38.98118,22 MARYLAND AVE,ANNAPOLIS,MD,21401
8402400095,HSC,CONCORD POINT LIGHTHOUSE,4109393213,HTTP://WWW.CONCORDPOINTLIGHTHOUSE.ORG,-76.11382,39.55143,PO BOX 212,HVRE DE GRAC,MD,21078
8402400099,HSC,BELAIR MANSION,3018093089,HTTP://WWW.CITYOFBOWIE.ORG,-76.74582,38.96678,12207 TULIP GROVE DR,BOWIE,MD,20715
8402400102,HSC,BALLESTONE MANOR,4108870218,HTTP://WWW.BALLESTONESTANSBURYHOUSE.ORG/PAGES/HOUSEHISTORY.ASPX,-76.42077,39.25464,1935 BACK RIVER NECK RD,BALTIMORE,MD,21221
8402400110,HSC,CAROLINE COUNTY HISTORICAL,4106739204, ,-75.91904,38.74659,3395 LINCHESTER RD,PRESTON,MD,21655
8402400116,HSC,CALVERT COUNTY HISTORICAL SOCIETY,4105352452,HTTP://WWW.CALVERTHISTORY.ORG/,-76.59268,38.53083,PO BOX 358,PRNC FREDERC,MD,20678
8402400117,HSC,BEATTY-CRAMER HOUSE FREDERICK,3016682086, ,-77.39092,39.42616,9010 LIBERTY RD,FREDERICK,MD,21701
8402400125,HSC,BENSON-HAMMOND HOUSE,4107689518, ,-76.6596,39.20837,7101 AVIATION BLVD,LINTHICUM,MD,21090
8402400126,HSC,INSTITUTE OF MARITIME HISTORY,3022224721,HTTP://WWW.MARITIMEHISTORY.ORG,-76.5308,38.15997,PO BOX 109,RALL TIMBERS,MD,20690
8402400130,HSC,BRADDOCK HEIGHTS HISTORICAL SOCIETY, ,HTTP://BRADDOCKHISTORY.ORG/,-77.50588,39.41513,PO BOX 672,BRADDOCK HTS,MD,21714
8402400133,HSC,SHARPSBURG HISTORICAL SOCIETY, ,HTTP://WWW.SHARPSBURGHISTORICALSOCIETY.ORG/,-77.75679,39.45247,PO BOX 513,SHARPSBURG,MD,21782
8402400136,HSC,JOST VAN DYKE PRESERVATION SOCIETY, , ,-76.48022,38.97463,326 FIRST ST STE 378,ANNAPOLIS,MD,21403
8402400137,HSC,WAC B&G MILITARY VEHICLE TRUST, ,HTTP://WWW.WASHINGTONBLUEGRAY.COM,-76.41722,39.51904,1332 VOULOIR CT,FALLSTON,MD,21047
8402400139,HSC,OLDE MILL, , ,-76.66496,39.12872,8068 QUARTERFIELD RD,SEVERN,MD,21108
8402400140,HSC,FEDERALSBURG HISTORICAL SOCIETY,4109247573,HTTP://HISTORICFEDERALSBURG.ORG/,-75.77501,38.7154,100 COVEY WILLIAMS ALLEY,FEDERALSBURG,MD,21632
8402400142,HSC,FREDERICK COUNTY VETERANS HISTORY PROJECT,3016001368,HTTP://WWW.FCPL.ORG/,-77.44138,39.44465,C BURR ARTZ PUBLIC LIBRARY FCPL 110 E PATRICK STREET,FREDERICK,MD,21702
8402400143,HSC,DAMASCUS HERITAGE SOCIETY,3012532014,HTTP://WWW.DHSM.ORG,-77.20054,39.28743,9701 MAIN ST,DAMASCUS,MD,20872
8402400145,HSC,HISTORICAL SOCIETY OF THE UNITED STATES DISTRICT COURT, , ,-76.61635,39.28762,101 W LOMBARD ST STE 441,BALTIMORE,MD,21201
8402400146,HSC,LINTHICUM-SHIPLEY HISTORIC ASSOCIATION,4108590655, ,-76.65083,39.20591,309 HILLTOP RD,LINTHICUM,MD,21090
8402400147,HSC,ST PATRICKS CHAPEL HISTORICAL SOCIETY, , ,-76.07926,39.67183,187 HARRISVILLE RD,COLORA,MD,21917
8402400151,HSC,TOLSONS CHAPEL, ,HTTP://WWW.TOLSONSCHAPEL.ORG/,-77.75679,39.45247,PO BOX 162,SHARPSBURG,MD,21782
8402400156,HSC,CLARKSBURG HISTORICAL SOCIETY, , ,-77.25754,39.26313,24801 BURNT HILL ROAD,CLARKSBURG,MD,20871
8402400158,HSC,ORDER OF THE MEROVINGIAN DYNASTY, , ,-76.9266,39.51025,1949 GREEN MILL RD,FINKSBURG,MD,21048
8402400162,HSC,MEMENTO MORI SOCIETY, , ,-77.18398,39.18161,19928 CHESLEY KNOLL DR,GAITHERSBURG,MD,20879
8402400164,HSC,SUGARLAND ETHNO-HISTORY PROJECT, ,HTTP://WWW.SUGARLANDETHNOHISTORYPROJECT.ORG/,-77.21198,39.11926,1 BLUE RIBBON CT,GAITHERSBURG,MD,20878
8402400165,HSC,FEDERAL HILL, , ,-76.60822,39.27894,409 WARREN AVE,BALTIMORE,MD,21230
8402400166,HSC,MARYLAND VETERANS MEMORIAL MUSEUM,3019321900, ,-76.95351,38.40827,11000 CRAIN HIGHWAY,NEWBURG,MD,20646
8402400173,HSC,AMERICAN ZIONIST HISTORICAL SOCIETY, , ,-77.13569,39.12583,16405 EQUESTRIAN LANE,DERWOOD,MD,20855
8402400174,HSC,HISTORIC DOWNTOWN RESIDENTS ASSOCIATION,4102687070,HTTP://WWW.HDRANEWBERN.ORG/,-76.488,38.97895,55 EAST STREET,ANNAPOLIS,MD,21401
8402400176,HSC,NANTICOKE HISTORIC PRESERVATIONALLIANCE, , ,-76.27691,38.5717,712 HILLS POINT ROAD,CAMBRIDGE,MD,21804
8402400177,HSC,CATOCTIN AQUEDUCT RESTORATION FUND, , ,-77.5595,39.30917,2711 LANDER RD,JEFFERSON,MD,21755
8402400178,HSC,GREATER BALTIMORE HISTORY ALLIANCE, ,HTTP://WWW.BALTIMOREMUSEUMS.ORG/,-76.66745,39.40752,PO BOX 375,BROOKLANDVL,MD,21022
8402400180,HSC,CIRCLE MANOR, , ,-77.07444,39.02222,10102 HADLEY PLACE,KENSINGTON,MD,20895
8402400186,HSC,JUNIUS B BOOTH SOCIETY, ,HTTP://JUNIUSBOOTH.ORG,-76.37743,39.46597,2515 JERUSALEM RD,JOPPA,MD,21085
8402400189,HSC,BALTIMORE AND OHIO RAILROAD HISTORICAL SOCIETY,4107522490,HTTP://WWW.BORHS.ORG,-76.63198,39.28577,901 W PRATT ST,BALTIMORE,MD,21227
8402400192,HSC,GIBSON ISLAND HISTORICAL SOCIETY,4104375270,HTTPS://WWW.GIBSONISLAND.COM/AFFILIATES/GI-HISTORICAL-SOCIETY.ASPX,-76.43004,39.07354,PO BOX 85,GIBSON ISLAN,MD,21056
8402400193,HSC,HISTORICAL SOCIETY OF CHARLES COUNTY, ,HTTP://CHARLESCOUNTYHISTORICAL.ORG/,-76.99273,38.57472,PO BOX 2806,LA PLATA,MD,20646
8402400195,HSC,HISTORICAL SOCIETY OF CECIL COUNTY,4103981790,HTTP://WWW.CCHISTORY.ORG,-75.82753,39.60901,135 E MAIN ST,ELKTON,MD,21921
8402400197,HSC,SWISS AMERICAN HISTORICAL SOCIETY, , ,-77.36494,39.25512,12 BARLEY FIELD CT,DICKERSON,MD,20842
8402400198,HSC,OLD BOHEMIA HISTORICAL SOCIETY,3023785800, ,-75.8042,39.42778,BOHEMIA CHURCH ROAD,WARWICK,MD,21912
8402400204,HSC,DORCHESTER COUNTY HISTORICAL,4102287953,HTTP://WWW.DORCHESTERHISTORY.COM/,-76.06289,38.56707,1003 GREENWAY DR,CAMBRIDGE,MD,21613
8402400205,HSC,FREDERICK COUNTY LANDMARKS FOUNDATION,3016633885,HTTP://WWW.FREDERICKCOUNTYLANDMARKSFOUNDATION.ORG/,-77.42645,39.42381,1110 ROSEMONT AVE,FREDERICK,MD,21701
8402400207,HSC,WICOMICO COUNTY HISTORICAL PROPERTIES, , ,-75.59987,38.36712,115 BROAD ST,SALISBURY,MD,21801
8402400209,HSC,CATONSVILLE HISTORICAL SOCIETY,4107443034,HTTP://WWW.CATONSVILLEHISTORY.ORG,-76.7397,39.2675,124 FOREST DR,CATONSVILLE,MD,21228
8402400210,HSC,MASON DIXON HISTORICAL SOCIETY, , ,-77.02796,39.62387,PO BOX 67,WESTMINSTER,MD,21158
8402400211,HSC,HISTORIC EASTON, ,HTTP://WWW.HISTORICEASTONINC.NET/,-76.09181,38.74669,PO BOX 1071,EASTON,MD,21601
8402400212,HSC,HERIT SOCIETY ESS AND MID RIV,4105746934,HTTP://WWW.HERITSOC-ESX-MIDRIV.COM/,-76.47503,39.3088,516 EASTERN BLVD,BALTIMORE,MD,21221
8402400214,HSC,PRINCE GEORGES COUNTY HISTORICAL & CULTURAL TRUST, , ,-76.75424,38.81455,PO BOX 85,UPPR MARLBOR,MD,20773
8402400219,HSC,HISTORIC MEDLEY DISTRICT,3019728588,HTTP://WWW.HISTORICMEDLEY.ORG,-77.42056,39.1427,19923 FISHER AVE,POOLESVILLE,MD,20837
8402400220,HSC,MARYLAND STEAM HISTORICAL SOCIETY, ,HTTP://MARYLANDSTEAM.ORG,-76.82882,39.64919,2704 ROHRBAUGH RD,HAMPSTEAD,MD,21074
8402400221,HSC,HISTORIC MOUNT NEBO PRESERVATION COMMITTEE, , ,-76.75424,38.81455,PO BOX 1137,UPPR MARLBOR,MD,20773
8402400223,HSC,PORT OF BALTIMORE TRICENTENNIAL COMMITTEE,4105611777, ,-76.6231,39.42132,PO BOX 413,LUTHERVILLE,MD,21094
8402400225,HSC,ELKRIDGE ASSEMBLY ROOMS, , ,-76.72116,39.21873,6090 LAWYERS HILL RD,ELKRIDGE,MD,21075
8402400229,HSC,HISTORIC LONG ISLAND FARM, , ,-76.57361,39.40196,PO BOX 42013,BALTIMORE,MD,21284
8402400234,HSC,MOUNT VERNON PLACE CONSERVANCY,4109625070,HTTP://MVPCONSERVANCY.ORG/,-76.59625,39.30046,901 SOUTH BOND STREET SUITE 400A,BALTIMORE,MD,21210
8402400235,HSC,LINTHICUM VETERANS MEMORIAL, , ,-76.6569,39.20678,6214 CHESTNUT OAK LN,LINTHICUM HT,MD,21090
8402400238,HSC,GULF WAR MEMORIAL, ,HTTP://GULFWARMEMORIAL.COM/,-78.76833,39.62528,27 POTOMAC ST,CUMBERLAND,MD,21502
8402400239,HSC,NS SAVANNAH ASSOCIATION,2026802066,HTTP://WWW.NS-SAVANNAH.ORG,-76.9657,39.54906,933 OPEN FIELD CT,WESTMINSTER,MD,21157
8402400241,HSC,BARN QUILT ASSOCIATION OF GARRETT COUNTY,8775772276,HTTP://GARRETTBARNQUILTS.ORG,-79.36732,39.39927,1916 MARYLAND HWY STE A,MOUNTAIN LAK,MD,21550
8402400242,HSC,AFRICAN AMERICAN FIREFIGHTER HISTORICAL SOCIETY,4102587546,HTTP://AAFFHS.ORG,-76.63919,39.31572,2500 EUTAW PL,BALTIMORE,MD,21217
8402400243,HSC,JOHN HANSON MEMORIAL ASSOCIATION,3018740235, ,-77.50201,39.29966,2455 BALLENGER CREEK PIKE,ADAMSTOWN,MD,21710
8402400247,HSC,RESTORERS OF MOUNT CARMEL IN MARYLAND, ,HTTP://WWW.RESTORERSMTCARMELMD.ORG,-77.0046,38.55633,5678 MOUNT CARMEL ROAD,LA PLATA,MD,20611
8402400248,HSC,MAIN STREET HISTORIC CHESTERTOWN, ,HTTP://WWW.MAINSTREETMARYLAND.ORG/VISIT/CHESTERTOWN/,-76.06614,39.20957,118 N CROSS ST,CHESTERTOWN,MD,21620
8402400251,HSC,CHARLES COUNTY PRESERVATION TRUST, , ,-76.88887,38.33222,PO BOX 7,MT VICTORIA,MD,20661
8402400253,HSC,AFRICAN AMERICAN HERITAGE PRESERVATION GROUP,2406195418, ,-77.01812,38.66883,9201 BASIL COURT,HYATTSVILLE,MD,20607
8402400256,HSC,CHOPTANK RIVER LIGHTHOUSE SOCIETY, , ,-76.26586,38.58378,PO BOX 1235,CAMBRIDGE,MD,21613
8402400258,HSC,MOUNTAIN HERITAGE HISTORICAL SOCIETY,3018346892,HTTP://SOUTHMOUNTAINHERITAGESOCIETY.ORG/,-77.62871,39.39336,3 EAST MAIN STREET,BURKITTSVILLE,MD,21719
8402400259,HSC,HEBRON TRAIN DEPOT,4102195108, ,-75.69247,38.40857,PO BOX 301,HEBRON,MD,21830
8402400265,HSC,HISTORIC ELLERSLIE, , ,-77.03818,38.50437,PO BOX 214,PORT TOBACCO,MD,20677
8402400266,HSC,JOHN WESLEY PRESERVATION SOCIETY, , ,-76.14384,38.68444,PO BOX 186,OXFORD,MD,21654
8402400268,HSC,CZECHOSLOVAK STUDIES ASSOCIATION, , ,-75.61722,38.36934,HISTORY - SU 1101 CAMDEN,SALISBURY,MD,21801
8402400271,HSC,MARYLAND FIRE-RESCUE SERVICES, , ,-76.19627,39.58107,3663 OLD LEVEL RD,HVRE DE GRAC,MD,21078
8402400273,HSC,JEWISH AMERICAN SOCIETY FOR HISTORIC PRESERVATION, , ,-77.13569,39.12583,16405 EQUESTRIAN LN,DERWOOD,MD,20855
8402400274,HSC,BALTIMORE CITY HISTORICAL SOCIETY,4106853750,HTTP://WWW.MDHS.ORG,-76.61844,39.29737,201 W MONUMENT ST,BALTIMORE,MD,21201
8402400275,HSC,RAILROAD HISTORY COLLECTION OF AMERICA, , ,-76.45392,39.34717,5 PINYON CT,MIDDLE RIVER,MD,21220
8402400277,HSC,HERITAGE TOURISM ALLIANCE OF MONTGOMERY COUNTY, ,HTTP://WWW.HERITAGEMONTGOMERY.ORG,-77.25677,39.20784,12535 MILESTONE MANOR LN,GERMANTOWN,MD,20876
8402400278,HSC,CHARLES COUNTY FIRE MUSEUM ASSOCIATION, , ,-76.95063,38.519,624 CLARKS RUN RD,LA PLATA,MD,20646
8402400279,HSC,GOSHEN FARM PRESERVATION SOCIETY, ,HTTP://WWW.GOSHENFARM.ORG/,-76.4338,39.04731,1223 RIVER BAY RD,ANNAPOLIS,MD,21409
8402400280,HSC,NORTH POINT PENINSULA COUNCIL, , ,-76.40143,39.22861,9005 CHESAPEAKE AVE,SPARROWS PT,MD,21219
8402400290,HSC,DEALE AREA HISTORICAL SOCIETY, , ,-76.55255,38.78362,PO BOX 5,DEALE,MD,20751
8402400293,HSC,STILL POND PRESERVATION, , ,-76.05184,39.3367,PO BOX 20,STILL POND,MD,21667
8402400294,HSC,SOUTH HARBOR RENAISSANCE, ,HTTP://WWW.SOUTH-HARBOR.ORG/,-76.60822,39.27894,405 WARREN AVE,BALTIMORE,MD,21230
8402400295,HSC,GAR POST 25,4107781149,HTTP://WWW.KENTCOUNTYARTSCOUNCIL.ORG/CHARLES-SUMNER-POST/,-76.09021,39.21453,206 S QUEEN ST,CHESTERTOWN,MD,21620
8402400296,HSC,BLACKSMITH GUILD OF WESTERN MARYLAND, , ,-77.66474,39.52278,6612 JEFFERSON BLVD,BRADDOCK,MD,21713
8402400297,HSC,JEWELS HERITAGE PROJECT, , ,-76.61518,39.31549,2313 SAINT PAUL ST,BALTIMORE,MD,21218
8402400302,HSC,QUEEN ANNES RAILROAD SOCIETY,4107583010,HTTP://WWW.QARRS.ORG/,-76.05049,39.0489,PO BOX 421,CENTREVILLE,MD,21617
8402400303,HSC,WALKERSVILLE HISTORICAL SOCIETY,4105470264, ,-77.35216,39.48449,29 FULTON AVE,WALKERSVILLE,MD,21793
8402400306,HSC,FORT HUNT PARKORPORATED, , ,-77.11329,39.01527,19 MAPLEWOOD PARK CT,BETHESDA,MD,20814
8402400307,HSC,GALESVILLE COMMUNITY CENTER ORGANIZATION,4107030610, ,-76.5454,38.84404,922 WEST BENNING ROAD,GALESVILLE,MD,20765
8402400308,HSC,MOUNT HARMON,4102758819,HTTP://WWW.MOUNTHARMON.ORG/,-75.94133,39.38845,600 MOUNT HARMON ROAD,EARLEVILLE,MD,21919
8402400310,HSC,POINT LOOKOUT LIGHTHOUSE PRESERVATION SOCIETY,3016843704,HTTP://WWW.PLLPS.ORG/,-76.51175,38.45276,POINT LOOKOUT STATE PARK 11175 POINT LOOKOUT ROAD,SCOTLAND,MD,20685
8402400312,HSC,MARYLAND HISTORICAL SOCIETY,4106853750,HTTP://WWW.MDHS.ORG,-76.61844,39.29737,201 W MONUMENT ST,BALTIMORE,MD,21201
8402400316,HSC,HAMMOND-HARWOOD HOUSE,4102634683,HTTP://HAMMONDHARWOODHOUSE.ORG/,-76.48862,38.98083,19 MARYLAND AVE,ANNAPOLIS,MD,21401
8402400321,HSC,HISTORIC ANNAPOLIS,4102677619,HTTP://WWW.ANNAPOLIS.ORG,-76.48721,38.97852,18 PINKNEY STREET,ANNAPOLIS,MD,21401
8402400324,HSC,MONTGOMERY COUNTY HISTORICAL SOCIETY,3017621492,HTTP://WWW.MONTGOMERYHISTORY.ORG/,-77.15793,39.08426,111 W MONTGOMERY AVE,ROCKVILLE,MD,20850
8402400326,HSC,BALTIMORE HERITAGE,4103329992,HTTP://BALTIMOREHERITAGE.ORG/,-76.61743,39.30225,11 WEST CHASE STREET,BALTIMORE,MD,21201
8402400328,HSC,HISTORIC SOCIETY OF KENT COUNTY MARYLAND,4107783499,HTTP://WWW.KENTCOUNTYHISTORY.ORG/,-76.06431,39.20876,101 CHURCH ALLEY,CHESTERTOWN,MD,21620
8402400331,HSC,HISTORIC UNIONTOWN,4439290042,HTTP://WWW.HISTORICUNIONTOWN.ORG/,-76.97779,39.567,526 BALTIMORE BLVD,WESTMINSTER,MD,21157
8402400334,HSC,PEERLESS ROCKVILLE HISTORIC PRESERVATION,3017620096,HTTP://WWW.PEERLESSROCKVILLE.ORG,-77.15232,39.08407,29 COURTHOUSE SQUARE #110,ROCKVILLE,MD,20850
8402400335,HSC,HISTORIC FELLS POINT AND FEDERAL HILL FUND, , ,-76.59129,39.2826,812 SOUTH ANN STREET,BALTIMORE,MD,21231
8402400336,HSC,CATOCTIN FURNACE HISTORICAL SOCIETY, ,HTTP://WWW.CATOCTINFURNACE.ORG,-77.43287,39.57799,12525 CATOCTIN FURNACE R,THURMONT,MD,21788
8402400338,HSC,CECIL HISTORICAL TRUST, , ,-75.83567,39.60804,PO BOX 673,ELKTON,MD,21922
8402400341,HSC,BASILICA OF THE ASSUMPTION HISTORIC TRUST,4107273565,HTTP://WWW.BALTIMOREBASILICA.ORG,-76.6156,39.29449,408 N CHARLES ST,BALTIMORE,MD,21201
8402400342,HSC,HISTORICAL OLD SALEM, , ,-76.73049,39.28394,615 INGLESIDE AVE,CATONSVILLE,MD,21228
8402400344,HSC,BOONSBORO HISTORICAL SOCIETY,3014325889, ,-77.65473,39.51124,323 N MAIN ST,BOONSBORO,MD,21713
8402400351,HSC,KENSINGTON HISTORICAL SOCIETY, ,HTTP://KENSINGTONHISTORY.ORG/,-77.07656,39.02817,PO BOX 453,KENSINGTON,MD,20895
8402400353,HSC,GARRETT COUNTY HISTORICAL SOCIETY,3013343226, ,-79.40839,39.40837,107 S 2ND ST,OAKLAND,MD,21550
8402400357,HSC,WESTMINSTER PRESERVATION TRUST,4107062072,HTTP://WWW.WESTMINSTERHALL.ORG/,-76.62234,39.28936,500 W BALTIMORE ST,BALTIMORE,MD,21201
8402400359,HSC,MIDDLETOWN VALLEY HISTORICAL SOCIETY,3013717582,HTTP://MVHISTORICALSOCIETY.WEEBLY.COM/,-77.54917,39.44283,305 WEST MAIN STREET,MIDDLETOWN,MD,21769
8402400360,HSC,BOYDS CLARKSBURG HISTORICAL SOCIETY, ,HTTP://WWW.BOYDSHISTORY.ORG/,-77.30814,39.18675,PO BOX 161,BOYDS,MD,20841
8402400361,HSC,HISTORIC TAKOMA,3012702831,HTTP://HISTORICTAKOMA.ORG/,-77.0058,38.97856,7328 CARROLL AVENUE,TAKOMA PARK,MD,20913
8402400363,HSC,MENCKEN SOCIETY,4108232348, ,-76.63134,39.34951,PO BOX 16218,BALTIMORE,MD,21210
8402400367,HSC,HISTORIC HAMPTON,4108231309,HTTP://WWW.NPS.GOV/HAMP/INDEX.HTM,-76.59279,39.41685,535 HAMPTON LN,TOWSON,MD,21286
8402400369,HSC,HISTORIC LONG GREEN VALLEY, , ,-76.60709,39.40215,210 ALLEGHENY AVE,TOWSON,MD,21204
8402400370,HSC,CLEAR SPRING DISTRICT HISTORICAL ASSCIATION,3018421393, ,-77.91398,39.64182,106 CUMBERLAND CT,CLEAR SPRING,MD,21722
8402400380,HSC,HISTORICAL ELECTRONICS MUSEUM,4107650230,HTTP://WWW.NATIONALELECTRONICSMUSEUM.ORG,-76.68268,39.19964,1745 W NURSERY RD,LINTHICUM,MD,21203
8402400381,HSC,KENT ISLAND HERITAGE SOCIETY,4106433073, ,-76.27661,38.96274,641 DOMINION RD,CHESTER,MD,21666
8402400385,HSC,MARYLAND MILITARY HISTORICAL SOCIETY, ,HTTP://WWW.MARYLANDMILITARYHISTORY.ORG/,-76.62001,39.29396,219 29TH DIVISION ST,BALTIMORE,MD,21201
8402400388,HSC,CHEVY CHASE HISTORICAL SOCIETY,3016566141,HTTP://CHEVYCHASEHISTORY.ORG/,-77.07707,38.99057,8005 CONNECTICUT AVENUE,CHEVY CHASE,MD,20825
8402400397,HSC,CAROLINE COUNTY HISTORICAL SOCIETY,4104792730,HTTP://WWW.CAROLINEHISTORY.ORG/,-75.8324,38.88644,16 N SECOND ST,DENTON,MD,21629
8402400400,HSC,HISTORIC ST MICHAELS BAY HUNDRED, , ,-76.22478,38.78547,PO BOX 964,ST MICHAELS,MD,21663
8402400404,HSC,HISTORIC WAVERLY, ,HTTP://WWW.THEREALWAVERLYHILLS.COM/,-76.86482,39.32949,190 WOODSTOCK RD,WOODSTOCK,MD,21163
8402400405,HSC,HISTORIC SHRIVER GRAVEYARD, , ,-76.97052,39.37707,7200 THIRD AVE APT C95,SYKESVILLE,MD,21784
8402400406,HSC,MONTGOMERY PRESERVATION,3014954915,HTTP://WWW.MONTGOMERYPRESERVATION.ORG/,-77.15365,39.09155,8100 GEORGIA AVE,ROCKVILLE,MD,20849
8402400408,HSC,CAPTAIN AVERY MUSEUM,4108674486,HTTP://WWW.CAPTAINAVERYMUSEUM.ORG/,-76.50877,38.83565,1418 EW SHADYSIDE ROAD,SHADY SIDE,MD,20764
8402400411,HSC,HISTORIC CAMBRIDGE, , ,-76.07528,38.57239,200 HIGH ST,CAMBRIDGE,MD,21613
8402400412,HSC,PAINTED SCREEN SOCIETY OF BALTIMORE, , ,-76.56972,39.29571,PO BOX 12122,BALTIMORE,MD,21281
8402400415,HSC,HISTORICAL INTERPRETERS, , ,-77.06462,39.3449,PO BOX 158,WOODBINE,MD,21797
8402400416,HSC,HANCOCK HISTORICAL SOCIETY CORPORATION,3016787377,HTTP://WWW.HANCOCKMUSEUM.ORG,-78.18861,39.69845,PO BOX 164,HANCOCK,MD,21750
8402400422,HSC,SMITHSBURG HISTORICAL SOCIETY,3018247154, ,-77.56833,39.65672,20 E WATER ST,SMITHSBURG,MD,21783
8402400423,HSC,CHESAPEAKE & ALLEGHENY STEAM,4104480730, ,-76.77992,39.26635,15 BENWAY CT,BALTIMORE,MD,21228
8402400428,HSC,RIVERSDALE HISTORICAL SOCIETY,3018640420, ,-76.93294,38.9607,6005 48TH AVE,RIVERDALE PK,MD,20737
8402400429,HSC,ANNE ARUNDEL COUNTY TRUST FOR PRESERVATION,4102227440,HTTP://ANNEARUNDELTRUST.ORG/,-76.49829,38.97777,PO BOX 1573,ANNAPOLIS,MD,21404
8402400431,HSC,WASHINGTON COUNTY HISTORICAL TRUST, ,HTTP://WASHINGTONCOUNTYHISTORICALTRUST.ORG/,-77.69768,39.45535,PO BOX 222,KEEDYSVILLE,MD,21756
8402400437,HSC,CHARLES CARROLL HOUSE OF ANNAPOLIS,4102691737,HTTP://WWW.CHARLESCARROLLHOUSE.COM/,-76.48909,38.97597,107 DUKE OF GLOUCESTER S,ANNAPOLIS,MD,21401
8402400438,HSC,WEST SIDE HISTORICAL SOCIETY, , ,-75.75907,38.4602,413 MAIN ST,MARDELA SPGS,MD,21837
8402400440,HSC,THURMONT HISTORICAL SOCIETY,3012711860,HTTP://THURMONTHISTORICALSOCIETY.COM/,-77.41155,39.62401,11 N CHURCH ST,THURMONT,MD,21788
8402400446,HSC,MOUNT WASHINGTON PRESERVATION TRUST, , ,-76.65744,39.3823,PO BOX 20851,BALTIMORE,MD,21209
8402400449,HSC,ODENTON HERITAGE SOCIETY, ,HTTP://WWW.ODENTONHERITAGE.ORG/,-76.70188,39.08538,1367 ODENTON ROAD,ODENTON,MD,21113
8402400451,HSC,ORIOLE HISTORICAL SOCIETY,2158884884,HTTP://WWW.ORIOLEHS.ORG/,-76.08951,38.56264,907 MACES LN,CAMBRIDGE,MD,21613
8402400454,HSC,GERMANTOWN HISTORICAL SOCIETY,3019722707,HTTP://WWW.GERMANTOWNMDHISTORY.ORG/,-77.2709,39.17293,19320 MATENY HILL ROAD,GERMANTOWN,MD,20875
8402400455,HSC,CARROLL BALDWIN MEMORIAL INSTITUTE,4102943561, ,-76.82598,39.13775,9035 BALTIMORE STREET,SAVAGE,MD,20763
8402400459,HSC,LOCUST POINT CIVIC ASSOCIATION,4439876468,HTTPS://MYLOCUSTPOINT.WORDPRESS.COM/,-76.62511,39.27111,PO BOX 27097,BALTIMORE,MD,21230
8402400460,HSC,COAST DEFENSE STUDY GROUP, ,HTTP://CDSG.ORG,-77.13804,38.92111,1700 OAK LN,MCLEAN,VA,22101
8402400461,HSC,EASTERN SHORE BASEBALL HALL OF FAME,4105464444,HTTP://WWW.ESBHALLOFFAME.ORG/,-75.5285,38.36811,6400 HOBBS RD,SALISBURY,MD,21802
8402400466,HSC,VIETNAM VETERANS MEMORIAL COMMITTEE, , ,-77.40551,39.41393,22 W SECOND ST FREDERICK,FREDERICK,MD,21705
8402400475,HSC,GARRETT-JACOBS MANSION ENDOWMENT FUND,4105396914,HTTP://WWW.ESB.ORG/CLUB/SCRIPTS/HOME/HOME.ASP,-76.61604,39.29727,11 W MT VERNON PLACE,BALTIMORE,MD,21201
8402400476,HSC,NORTH BRENTWOOD HISTORICAL SOCIETY, , ,-76.95299,38.93975,PO BOX 2,BRENTWOOD,MD,20722
8402400479,HSC,GRANITE HISTORICAL SOCIETY, , ,-76.86482,39.32949,PO BOX 43,WOODSTOCK,MD,21163
8402400480,HSC,FORT FREDERICK STATE PARK, ,HTTP://WWW.FRIENDSOFFORTFREDERICK.INFO/,-78.00278,39.61662,11115 FORT FREDERICK RD,BIG POOL,MD,21711
8402400481,HSC,WELLS-ROBERTSON HOUSE,2404218932, ,-77.23531,39.12205,PO BOX 83851,GAITHERSBURG,MD,20883
8402400484,HSC,FIRST BATTALION MARYLAND CAVALRY IN, ,HTTP://WWW.1STMARYLANDCAV.COM,-76.63559,39.51854,20 OLD FORGE GARTH,SPARKS,MD,21152
8402400486,HSC,NATIONAL CAPITAL RADIO AND TELEVISION MUSEUM,3013901020,HTTP://NCRTV.ORG/,-76.73316,38.92618,2608 MITCHELLVILLE RD,BOWIE,MD,20716
8402400488,HSC,SOUTH MOUNTAIN HERITAGE SOCIETY,3018346892,HTTP://SOUTHMOUNTAINHERITAGESOCIETY.ORG,-77.62778,39.3927,PO BOX 509,BURKITTSVILL,MD,21718
8402400490,HSC,NEW WINDSOR HERITAGE COMMITTEE,4106392602,HTTP://WWW.NEWWINDSORHERITAGE.ORG/,-77.10795,39.54311,207 MAIN STREET,NEW WINDSOR,MD,21776
8402400494,HSC,LOWER EASTERN SHORE HERITAGE COMMITTEE,4106774706,HTTP://LOWERSHOREHERITAGE.ORG/,-75.60258,38.36518,212 W MAIN ST STE 309,SALISBURY,MD,21801
8402400496,HSC,MAUGANSVILLE HISTORICAL SOCIETY, , ,-77.74586,39.69827,PO BOX 307,MAUGANSVILLE,MD,21767
8402400497,HSC,ARABBER PRESERVATION SOCIETY,4102341017, ,-76.63526,39.28633,118 S ARLINGTON AVE,BALTIMORE,MD,21223
8402400499,HSC,ADKINS HISTORICAL AND MUSEUM COMPLEX,4106774740,HTTP://ADKINSMUSEUM.COM/,-75.74611,38.47468,PO BOX 160,MARDELA SPGS,MD,21837
8402400500,HSC,WYE GRIST MILL,4108276909,HTTP://WWW.OLDWYEMILL.ORG/,-76.08003,38.9165,14296 OLD WYE MILLS ROAD,WYE MILLS,MD,21679
8402400503,HSC,CECILS HISTORIC DISTRICT INC, , ,-76.84435,39.10444,319 MAIN ST 3RD FL,LAUREL,MD,20707
8402400504,HSC,HOUSE OF YODER,3018953800, ,-79.17148,39.67539,10411 NATIONAL PIKE,GRANTSVILLE,MD,21536
8402400508,HSC,GAITHERSBURG HISTORICAL ASSOCIATION LIMITED, , ,-77.20086,39.14411,6 WALKER AVE,GAITHERSBURG,MD,20877
8402400509,HSC,TEACKLE MANSION,4106512238,HTTP://SOMERSETCOUNTYHISTORICALSOCIETY.ORG/HOME,-75.6963,38.20342,11736 MANSION STREET,PRINCESS ANNE,MD,21853
8402400514,HSC,TURKEY POINT LIGHT STATION,4102878170, ,-75.95512,39.59865,PO BOX 117,NORTH EAST,MD,21901
8402400517,HSC,WASHINGTON COUNTY MENNONITE HISTORIC LIBRARY, , ,-77.90042,39.61892,11269 DAM 5 RD,CLEAR SPRING,MD,21722
8402400522,HSC,ALLEN HISTORICAL SOCIETY,4104562043,HTTP://WWW.ALLENHISTORICALSOCIETY.ORG/,-75.68804,38.29059,3473 ALLEN ROAD,ALLEN,MD,21810
8402400523,HSC,LAYTONSVILLE HISTORICAL CENTER, , ,-77.14265,39.21914,21607 LAYTONSVILLE ROAD,LAYTONSVILLE,MD,20882
8402400524,HSC,PEIRCE MILL,3015125899,HTTP://WWW.PEIRCEMILL-FRIENDS.ORG,-77.1709,39.02984,8404 PITTSFIELD CT,POTOMAC,MD,20854
8402400527,HSC,LUTHERVILLE VICTORIAN SOCIETY,4102525543, ,-76.62199,39.42225,200 MORRIS AVE,LUTHERVILLE,MD,21093
8402400528,HSC,HAZELWOOD PRESERVATION SOCIETY, , ,-76.60154,38.99053,625 WOODSMANS WAY,CROWNSVILLE,MD,21032
8402400530,HSC,AMERICAN MILITARY MEDICAL IMPRESSION, , ,-76.82505,38.80522,6101 WELSHIRE PL,UPPR MARLBOR,MD,20772
8402400531,HSC,MARYLAND LOYALISTS BATTALION, , ,-76.96352,39.40144,PO BOX 1345,ELDERSBURG,MD,21784
8402400535,HSC,COWDENSVILLE A M E, , ,-76.70622,39.24646,1108 SULPHUR SPRING RD,BALTIMORE,MD,21227
8402400538,HSC,HISTORIC OXFORD LIMITED, , ,-76.14384,38.68444,PO BOX 404,OXFORD,MD,21654
8402400539,HSC,HISTORICAL SOCIETY OF MONT AIRY MD,4107956012, ,-77.15366,39.37801,110 SOUTH MAIN ST,MOUNT AIRY,MD,21771
8402400541,HSC,WARREN HISTORIC SITE COMMITTEE, ,HTTP://WARRENHISTORICSITE.WEEBLY.COM,-77.10653,39.12031,16108 GRIST MILL DR,ROCKVILLE,MD,20855
8402400542,HSC,KEEDYSVILLE HISTORICAL SOCIETY,3014328845,HTTPS://WWW.FACEBOOK.COM/KEEDYSVILLEHISTORICALSOCIETY,-77.69768,39.45535,PO BOX 283,KEEDYSVILLE,MD,21756
8402400544,HSC,MARYLAND AFRICAN AMERICAN MUSEUM,4432631800,HTTP://WWW.LEWISMUSEUM.ORG/,-76.59488,39.04432,830 E PRATT STREET,CROWNSVILLE,MD,21032
8402400553,HSC,WOODSBORO HISTORICAL SOCIETY,3015245167,HTTPS://WWW.FACEBOOK.COM/WOODSBOROHISTORICALSOCIETYINC,-77.30227,39.53716,PO BOX 42,WOODSBORO,MD,21798
8402400554,HSC,HAGERSTOWN AND FREDERICK RAILWAY HISTORICAL SOCIETY, ,HTTP://WWW.HFRHS.ORG/,-77.45941,39.42399,PO BOX 1314,FREDERICK,MD,21702
8402400555,HSC,HISTORIC SHIPS IN BALTIMORE,4105391797,HTTP://WWW.HISTORICSHIPS.ORG/,-76.59777,39.29935,802 S CAROLINE ST,BALTIMORE,MD,21231
8402400556,HSC,HYATTSTOWN MILL ARTS PROJECT, ,HTTP://WWW.HYATTSTOWNMILL.ORG,-77.31127,39.27941,14920 HYATTSTOWN MILL RD,CLARKSBURG,MD,20871
8402400559,HSC,JUNETEENTH NATIONAL MUSEUM, , ,-76.60737,39.32613,609 MONTPELIER ST,BALTIMORE,MD,21218
8402400560,HSC,HISTORIC GREAT FALLS TAVERN,3014240229,HTTP://WWW.FHGFT.ORG/,-77.22354,38.99544,10809 ROCK RUN DRIVE,POTOMAC,MD,20854
8402400565,HSC,OLD WALLVILLE SCHOOL, ,HTTP://WWW.OLDWALLVILLESCHOOL.ORG/,-76.57038,38.55419,1450 DARES BEACH RD,PRINCE FREDERICK,MD,20678
8402400567,HSC,GREATER FORT FOOTE AREA RECREATIONAL CULTURAL AND HISTORICAL,3015672726, ,-77.02355,38.76298,9103 IVANHOE ROAD,FORT WASHINGTON,MD,20744
8402400568,HSC,WESTERN MARYLAND INTERPRETIVE ASSOCIATION, , ,-77.75679,39.45247,HWY 65 N ANTIETAM,SHARPSBURG,MD,21782
8402400572,HSC,MARYLAND CLUB PRESERVATION FOUNDATION,4107272323, ,-76.61514,39.30096,1 E EAGER ST,BALTIMORE,MD,21202
8402400574,HSC,PRESERVATION HOWARD COUNTY, ,HTTP://WWW.PRESERVATIONHOWARDCOUNTY.ORG/,-76.86708,39.1744,PO BOX 406,SIMPSONVILLE,MD,21150
8402400578,HSC,FREDERICK DOUGLASS ORGANIZATION, ,HTTP://FREDERICKDOUGLASSIV.ORG/,-76.61552,39.23261,PO BOX 3460,BALTIMORE,MD,21203
8402400582,HSC,DOUBLE MILLS, ,HTTP://NEW.DOUBLEMILLS.ORG/,-75.71662,38.46543,25815 GRIST MILL DRIVE,MARDELA SPRINGS,MD,21837
8402400583,HSC,TODDS INHERITANCE HISTORIC SITE, ,HTTP://WWW.TODDSINHERITANCE.COM/,-76.44663,39.24118,7114 N POINT RD,BALTIMORE,MD,21219
8402400584,HSC,SYKESVILLE & PATAPSCO RAILWAY, ,HTTP://SPRAILWAY.ORG/,-77.02593,39.54562,841 WESTERN CHAPEL RD,WESTMINSTER,MD,21157
8402400590,HSC,MONTPELIER MANSION,3013777817,HTTP://WWW.PGPARKS.COM/THINGS_TO_DO/HISTORY/MONTPELIER_MANSION/HTM,-76.84217,39.06229,9650 MUIRKIRK ROAD,WASHINGTON,MD,20708
8402400593,HSC,JEWISH MUSEUM OF MARYLAND,4107326400,HTTP://JEWISHMUSEUMMD.ORG/,-76.60134,39.29036,15 LLOYD ST,BALTIMORE,MD,21202
8402400594,HSC,SOTTERLEY FOUNDATION,3013732280,HTTP://WWW.SOTTERLEY.ORG,-76.5654,38.3456,PO BOX 67,HOLLYWOOD,MD,20636
8402400596,HSC,HISTORICAL SOCIETY OF TALBOT COUNTY,4108220773,HTTP://WWW.HSTC.ORG,-76.07615,38.77413,30 S WASHINGTON ST,EASTON,MD,21601
8402400598,HSC,ANN ARUNDELL COUNTY, , ,-76.67785,39.20329,PO BOX 385,LINTHICUM,MD,21090
8402400599,HSC,WASHINGTON COUNTY HISTORICAL SOCIETY,3017978782,HTTP://HSWCV.ORG/,-77.72339,39.64339,135 W WASHINGTON ST,HAGERSTOWN,MD,21740
8402400600,HSC,BALTIMORE COUNTY HISTORICAL SOCIETY,4106661878,HTTP://WWW.HSOBC.ORG,-76.6277,39.46187,9811 VAN BUREN LN,COCKEYSVILLE,MD,21030
8402400601,HSC,QUEEN ANNES COUNTY HISTORICAL SOCIETY,4107583010,HTTP://QACHISTORY.ORG/,-76.06604,39.04349,124 S COMMERCE STREET,CENTREVILLE,MD,21617
8402400602,HSC,HISTORICAL SOCIETY OF FREDERICK COUNTY,3016631188,HTTP://WWW.HSFCINFO.ORG,-77.41005,39.41532,24 E CHURCH ST,FREDERICK,MD,21701
8402400604,HSC,HISTORICAL SOCIETY OF HARFORD COUNTY,4108387691,HTTP://WWW.HARFORDHISTORY.NET/,-76.35245,39.53879,143 N MAIN ST,BEL AIR,MD,21014
8402400607,HSC,BALTIMORE PHILATELIC SOCIETY,4103324141, ,-76.80271,39.2584,3340 ELLICOT CENTER DR S,ELLICOTT CIT,MD,21043
8402400608,HSC,HOWARD COUNTY HISTORICAL SOCIETY,4104611050,HTTP://HCHSMD.ORG/,-76.79973,39.26864,8328 COURT AVE,ELLICOTT CITY,MD,21041
8402400609,HSC,ALLEGANY COUNTY HISTORICAL SOCIETY,3017778678,HTTP://WWW.GORDON-ROBERTSHOUSE.COM,-76.07519,38.56206,218 WASHINGTON ST,CUMBERLAND,MD,21502
8402400611,HSC,PRINCE GEORGES COUNTY HISTORICAL SOCIETY,3012200330, ,-76.91925,38.96338,PO BOX 14,RIVERDALE,MD,20738
8402400612,HSC,WESTERN MARYLAND RAILWAY HISTORICAL SOCIETY,4107750150,HTTP://WESTERNMARYLANDRHS.COM/,-77.17746,39.56977,41 N MAIN ST,UNION BRIDGE,MD,21791
8402400613,HSC,WORCESTER COUNTY HISTORICAL SOCIETY, , ,-75.39034,38.18347,PO BOX 111,SNOW HILL,MD,21863
8402400615,HSC,CHESAPEAKE AND OHIO CANAL ASSOCIATION,3019830825,HTTP://WWW.CANDOCANAL.ORG/,-77.1419,38.96882,PO BOX 366,GLEN ECHO,MD,20812
8402400616,HSC,CIVIL WAR PRESERVATION TR,3016651400, ,-77.69359,39.63674,1140 PROFESSIONAL CT,HAGERSTOWN,MD,21740
8402400622,HSC,BAYSIDE HISTORY MUSEUM,3018554645,HTTP://WWW.BAYSIDEHISTORYMUSEUM.ORG/,-76.5349,38.70641,4025 4TH STREET,NORTH BEACH,MD,20714
8402400625,HSC,COASTAL HERITAGE ALLIANCE, ,HTTP://COASTALHERITAGE.ORG,-76.22478,38.78547,PO BOX 313,ST MICHAELS,MD,21663
8402400626,HSC,NORTH DORCHESTER RAILROAD,4103763620, ,-75.86949,38.64308,PO BOX 1258,HURLOCK,MD,21643
8402400627,HSC,OELLA HISTORICAL SOCIETY,4104651700, ,-76.78729,39.276,768 OELLA AVE,ELLICOTT CIT,MD,21043
8402400628,HSC,RISING SUN HISTORICAL PRESERVATION COMMISSION,4103505351, ,-76.04713,39.69221,PO BOX 283,RISING SUN,MD,21911
8402400630,HSC,MCMILLIAN HISTORICAL ASSOCIATION,3019421004, ,-77.04839,39.04942,2308 PARKER AVE,SILVER SPRING,MD,20902
8402400631,HSC,MT BEULAH RESTORATION ASSOCIATION, , ,-79.11252,39.63313,1041 TWIN CHURCHES RD,GRANTSVILLE,MD,21536
8402400632,HSC,CHARLES COUNTY ARCHAEOLOGICAL SOCIETY OF MARYLAND, , ,-76.98467,38.52487,PO BOX 1233,LA PLATA,MD,20646
8402400635,HSC,TOUSSAINT LOUVERTURE HISTORICAL SOCIETY, ,HTTP://TOUSSAINTLOUVERTUREHS.ORG/,-76.99661,39.04826,700 QUAINT ACRES DR,SILVER SPRIN,MD,20904
8402400639,HSC,FOUR RIVERS HERITAGE AREA,4102221805, ,-76.49512,38.97993,44 CALVERT ST,ANNAPOLIS,MD,21401
8402400642,HSC,HISTORICAL CHERRY HILL, , ,-76.81047,39.4047,8724 GROFFS MILL DR,OWINGS MILLS,MD,21117
8402400646,HSC,LAKELAND COMMUNITY HERITAGE PROJECT, ,HTTP://LAKELANDCHP.COM,-76.92845,38.98926,5011 NAVAHOE ST,COLLEGE PARK,MD,20740
8402400647,HSC,DUNDALK PATAPSCO NECK HISTORICAL SOCIETY & MUSEUM,4102842331,HTTP://WWW.DUNDALKHISTORY.ORG/,-76.52169,39.2581,4 N CENTER PL,DUNDALK,MD,21222
8402400648,HSC,PEALE CENTER,4438482646,HTTP://WWW.THEPEALECENTER.ORG,-76.63003,39.34742,4611 KESWICK RD,BALTIMORE,MD,21210
8402400650,HSC,TILGHMAN WATERMENS MUSEUM,4108862930,HTTP://WWW.TILGHMANMUSEUM.ORG,-76.33547,38.70527,PO BOX 344,TILGHMAN,MD,21671
8402400651,HSC,LOUIS DIGGS RESEARCH CENTER-PEST HOUSE, , ,-76.81047,39.4047,8724 GROFFS MILL DR,OWINGS MILLS,MD,21117
8402400652,HSC,JOE BLACK MEMORIAL FUND, , ,-76.77826,39.00097,8110 CHESTNUT AVE,BOWIE,MD,20715
8402400653,HSC,OLIVER HERITAGE RESEARCH GROUP, , ,-76.51918,39.06613,748 DIVIDING ROAD,SEVERNA PARK,MD,21146
8402400657,HSC,MT ZION HISTORICAL SOCIETY, , ,-75.708,38.20583,PO BOX 325,PRINCESS ANNE,MD,21853
8402400659,HSC,ROSE HILL MANOR PARK,3016941648,HTTP://WWW.ROSEHILLMUSEUM.COM,-77.40431,39.43415,1611 N MARKET ST,FREDERICK,MD,21701
8402400660,HSC,ABERDEEN ROOM ARCHIVES AND MUSEUM,4102736325,HTTP://WWW.ABERDEENROOM.ORG/,-76.16402,39.51066,18 HOWARD ST,ABERDEEN,MD,21001
8402400680,HSC,FORT MCHENRY NM&HS,4109624290, ,-76.58358,39.26553,2400 EAST FORT AVENUE,BALTIMORE,MD,21230
8402400681,HSC,ASSATEAGUE ISLAND NATIONAL SEASHORE,4106296061, ,-75.15591,38.24976,7206 NATIONAL SEASHORE LANE,BERLIN,MD,21811
8402400682,HSC,FORT WASHINGTON PARK,2026926049, ,-77.02437,38.71253,13551 FORT WASHINGTON RD,FORT WASHINGTON,MD,20744
8402400683,HSC,MONOCACY NATIONAL BATTLEFIELD,3016623515, ,-77.3886,39.36196,4632 ARABY CHURCH ROAD,FREDERICK,MD,21704
8402400684,HSC,CLARA BARTON NATIONAL HISTORIC SITE,3013201410, ,-77.14034,38.96871,5801 OXFORD ROAD,GLEN ECHO,MD,20812
8402400685,HSC,GLEN ECHO PARK,3013201410, ,-77.14012,38.96905,7300 MACARTHUR BOULEVARD,GLEN ECHO,MD,20812
8402400686,HSC,C&O CANAL'S,3017142236, ,-77.73188,39.63386,C&O CANAL NATIONAL HISTORICAL PARK,HAGERSTOWN,MD,21740
8402400687,HSC,MUSEUM RESOURCE CENTER,3013410706, ,-76.87453,38.93066,3300 HUBBARD ROAD,LANDOVER,MD,20785
8402400688,HSC,THOMAS STONE NATIONAL HISTORIC SITE,8042241732, ,-77.02881,38.52264,6655 ROSEHILL ROAD,PORT TOBACCO,MD,20677
8402400689,HSC,ANTIETAM NATIONAL BATTLEFIELD,3014328767, ,-77.75679,39.45247,BOX 158,SHARPSBURG,MD,21782
8402400690,HSC,CATOCTIN MOUNTAIN PARK,3016639330, ,-77.45007,39.63354,6602 FOXVILLE ROAD,THURMONT,MD,21788
8402400691,HSC,HAMPTON NATIONAL HISTORIC SITE,4108231309, ,-76.59279,39.41685,535 HAMPTON LANE,TOWSON,MD,21286
8402500004,HSC,WISTARIAHURST MUSEUM,4135342216,HTTP://WISTARIAHURST.ORG/,-72.61734,42.20473,238 CABOT ST,HOLYOKE,MA,1040
8402500022,HSC,SHIRLEY-EUSTIS HOUSE,6174422275, ,-71.07167,42.32367,33 SHIRLEY STREET,ROXBURY,MA,2119
8402500024,HSC,STONY BROOK GRIST MILL,6136893238, ,-70.11186,41.74472,830 STONY BROOK ROAD,BREWSTER,MA,2631
8402500027,HSC,STEPHEN PHILLIPS TRUST HOUSE,9787440440,HTTP://WWW.HISTORICNEWENGLAND.ORG,-70.90281,42.51922,34 CHESTNUT ST,SALEM,MA,1970
8402500030,HSC,SEWALL-SCRIPTURE HOUSE, , ,-70.62631,42.65764,40 KING ST,ROCKPORT,MA,1966
8402500031,HSC,HISTORICAL SOCIETY OF WATERTOWN,6179236067,HTTP://HISTORICALSOCIETYOFWATERTOWNMA.ORG/HSW/,-71.18,42.3685,28 MARSHALL STREET,WATERTOWN,MA,2172
8402500036,HSC,PHILLIPS HOUSE,9787440440,HTTP://WWW.HISTORICNEWENGLAND.ORG/,-70.90281,42.51922,34 CHESTNUT STREET,SALEM,MA,1970
8402500042,HSC,OLD RED CARRIAGE HOUSE BABY,4138634300, ,-72.54274,42.61016,61 FRENCH KING HWY,GILL,MA,1354
8402500044,HSC,PIERCE HOUSE,6172886041, ,-71.0522,42.28706,24 OAKTON AVE,DORCHESTER,MA,2122
8402500045,HSC,PILGRAM JOHN HOWLAND SOCIETY,5087469590, ,-70.66354,41.95453,33 SANDWICH ST,PLYMOUTH,MA,2360
8402500048,HSC,PELHAM HISTORICAL SOCIETY MUSEUM,4132537313,HTTP://WWW.PELHAMHS.ORG,-72.40838,42.3914,376 AMHERST RD,PELHAM,MA,1002
8402500049,HSC,OLD MEETING HOUSE,4135964097,HTTP://WWW.WILBRAHAMATHENEUM.ORG,-72.43112,42.12278,450 MAIN ST,WILBRAHAM,MA,1095
8402500052,HSC,PAN AFRICAN HISTORICAL MUSEUM,4137331823,HTTP://WWW.MUSEUMSUSA.ORG/MUSEUMS,-72.58916,42.10194,1500 MAIN ST,SPRINGFIELD,MA,1144
8402500054,HSC,PAUL REVERE HOUSE,6175231676, ,-71.03133,42.33697,19 N ST,BOSTON,MA,2127
8402500060,HSC,QUINCY HOUSE,6174714508, ,-71.01428,42.27163,18 MUIRHEAD ST,QUINCY,MA,2170
8402500061,HSC,NORTHFIELD HISTORICAL MUSEUM,4134982455, ,-72.37928,42.65593,408 DIVISION STREET,NORTHFIELD,MA,1360
8402500064,HSC,PIONEER VILLAGE,9787448815,HTTP://WWW.PIONEERVILLAGESALEM.COM,-70.90034,42.51542,FOREST RIVER PARK,SALEM,MA,1970
8402500065,HSC,OLD SOUTH MEETING HOUSE,6174826439,HTTP://WWW.OLDSOUTHMEETINGHOUSE.ORG/,-71.05851,42.35708,310 WASHINGTON STREET,BOSTON,MA,2108
8402500080,HSC,MARITIME MUSEUM,7815455565,HTTP://WWW.SCITUATEHISTORICALSOCIETY.ORG/SITES_MARITIME.HTML,-70.75075,42.20417,PO BOX 276,SCITUATE,MA,2066
8402500082,HSC,MARY BAKER EDDY HISTORICAL HOME,7815935634, ,-70.93513,42.46394,12 BROAD ST,LYNN,MA,1902
8402500084,HSC,MARTHA'S VINEYARD MUSEUM,5086274441,HTTP://WWW.MVMUSEUM.ORG,-70.52404,41.38185,PO BOX 1310,EDGARTOWN,MA,2539
8402500091,HSC,MACY-COLBY HOUSE,9783883054,HTTP://WWW.MACYCOLBYHOUSE.ORG/,-70.93008,42.8474,257 MAIN ST,AMESBURY,MA,1913
8402500097,HSC,NORTH ATTLEBOROUGH FIRE BARN PRESERVATION SOCIETY, ,HTTP://WWW.NATTLEBORO.COM/HISTORICAL-COMMISSION/PAGES/FALLS-FIRE-BARN,-71.31407,41.97106,100 COMMONWEALTH AVENUE,ATTLEBORO FALLS,MA,2763
8402500110,HSC,MAJOR JUDAH ALDEN HOUSE,7819342886, ,-70.68842,42.0425,1061 TREMONT ST,DUXBURY,MA,2332
8402500111,HSC,ISAAC WINSLOW HOUSE,7818375753,HTTP://WWW.WINSLOWHOUSE.ORG,-70.67463,42.0706,634 CARESWELL ST,MARSHFIELD,MA,2050
8402500112,HSC,JACKSON HOMESTEAD,6177961450,HTTP://WWW.HISTORICNEWTON.ORG/,-71.19378,42.35522,527 WASHINGTON ST,NEWTON,MA,2458
8402500118,HSC,LEVERETT SCHOOLHOUSE, ,HTTP://WWW.LEVERETTHISTORICAL.ORG/,-72.47724,42.4994,220 N LEVERETT RD,LEVERETT,MA,1054
8402500121,HSC,HISTORICAL SOCIETY BILLERICA,9786677020,HTTP://WWW.BILLERICAHISTORY.ORG,-71.26959,42.55581,36 CONCORD RD,BILLERICA,MA,1821
8402500125,HSC,IPSWICH HISTORICAL SOCIETY,9783562811, ,-70.83594,42.6773,54 S MAIN ST,IPSWICH,MA,1938
8402500126,HSC,NATICK HISTORICAL SOCIETY,5086474841,HTTP://NATICKHISTORICALSOCIETY.ORG,-71.31737,42.27026,58 ELIOT ST,NATICK,MA,1760
8402500132,HSC,NORCROSS CENTER,4135251122,HTTP://WWW.NORCROSSCENTER.ORG,-72.50882,42.06591,PO BOX 532,E LONGMEADOW,MA,1028
8402500137,HSC,HINGHAM HISTORICAL SOCIETY & MUSEUM,7817490013,HTTP://WWW.HINGHAMHISTORICAL.ORG/,-70.88939,42.24303,PO BOX 434,HINGHAM,MA,2043
8402500144,HSC,GROPIUS HOUSE,7812598098,HTTP://WWW.HISTORICNEWENGLAND.ORG,-71.32371,42.42777,68 BAKER BRIDGE RD,LINCOLN,MA,1773
8402500149,HSC,GARRISON HOUSE,9782568832,HTTP://WWW.GARRISONHOUSE.ORG,-71.34713,42.60246,PO BOX 161,CHELMSFORD,MA,1824
8402500151,HSC,FRAMINGHAM HISTORY & NATURAL HISTORY SOCIETY,5088723780,HTTP://WWW.FRAMINGHAMHISTORY.ORG/,-71.43548,42.30249,16 VERNON ST,FRAMINGHAM,MA,1701
8402500154,HSC,CODMAN HOUSE,7812598843, ,-71.33115,42.41617,36 CODMAN RD,LINCOLN,MA,1773
8402500156,HSC,COHASSET HISTORICAL SOCIETY,7813831434, ,-70.80436,42.24145,PO BOX 627,COHASSET,MA,2025
8402500157,HSC,EDWARD GOREY HOUSE,5083623909,HTTP://WWW.EDWARDGOREYHOUSE.ORG,-73.98294,40.74449,C/O DAVIS WRIGHT TREMAIN,NEW YORK,NY,10019
8402500160,HSC,EMILY DICKINSON: THE HOMESTEAD AND THE EVERGREENS,4135422152,HTTPS://WWW.EMILYDICKINSONMUSEUM.ORG/,-72.51395,42.37622,280 MAIN ST,AMHERST,MA,1002
8402500163,HSC,COLONEL ASHLEY HOUSE,4132983239,HTTP://THETRUSTEES.ORG,-73.36493,42.10191,117 COOPER HILL RD,SHEFFIELD,MA,1257
8402500167,HSC,EMERSON R W MEMORIAL HOUSE,9783692236, ,-71.3414,42.4569,28 CAMBRIDGE TPKE,CONCORD,MA,1742
8402500178,HSC,COOPER-FROST-AUSTIN HOUSE,6179946669, ,-71.12237,42.38415,21 LINNAEAN ST,CAMBRIDGE,MA,2138
8402500182,HSC,BOYLSTON HISTORICAL SOCIETY AND MUSEUM,5088692720,HTTP://WWW.BOYLSTONHISTORY.ORG/INDEX.PHP,-71.72912,42.35445,7 CENTRAL ST,BOYLSTON,MA,1505
8402500183,HSC,CAPE ANN HISTORICAL ASSOCIATION,9782830455,HTTP://WWW.CAPEANNMUSEUM.ORG,-70.66183,42.61402,27 PLEASANT STREET,GLOUCESTER,MA,1930
8402500189,HSC,BOURNE HISTORICAL CENTER AND ARCHIVES,5087598167, ,-70.60874,41.74742,PO BOX 3095,BOURNE,MA,2532
8402500192,HSC,ATHENEUM SOCIETY OF WILBRAHAM,4135964097,HTTP://WWW.WILBRAHAMATHENEUM.ORG,-72.43112,42.12278,450 MAIN ST,WILBRAHAM,MA,1095
8402500197,HSC,ABRAHAM BROWNE HOUSE, , ,-71.20058,42.37243,562 MAIN ST,WATERTOWN,MA,2472
8402500201,HSC,BROOKLINE HISTORICAL SOCIETY,6175665747, ,-71.12365,42.3437,347 HARVARD STREET,BROOKLINE,MA,2146
8402500202,HSC,BISBEE MILL,4132964465, ,-72.82383,42.37424,66 EAST ST,CHESTERFIELD,MA,1012
