MID,DISCIPLINE,COMMONNAME,PHONE,WEBURL,LONGITUDE,LATITUDE,GSTREET,GCITY,GSTATE,GZIP5
8400100009,HSC,STURDIVANT HALL,3348725626, ,-87.02243,32.40623,PO BOX 1205,SELMA,AL,36702
8400100011,HSC,SLOSS FURNACES NATIONAL HISTORIC LANDMARK,2053241911,HTTP://SLOSSFURNACES.COM/,-86.78855,33.52109,20 32ND ST N,BIRMINGHAM,AL,35222
8400100016,HSC,NORTHPORT HERITAGE MUSEUM,2055238720,HTTP://NORTHPORT-SMITHSONIAN.ORG/,-87.58354,33.23036,PO BOX 393,NORTHPORT,AL,35476
8400100018,HSC,ORDEMAN-SHAW HOUSE,3106485578, ,-86.30384,32.38171,310 N HULL ST,MONTGOMERY,AL,36104
8400100028,HSC,MAGNOLIA GROVE,3346248618,HTTP://PRESERVEALA.ORG/MAGNOLIAGROVE.ASPX?SM=G_K,-87.59424,32.71317,PO BOX 195,GREENSBORO,AL,36744
8400100031,HSC,MUSEUMS OAKLEIGH MUSEUM,2514321281, ,-88.06003,30.68068,300 OAKLEIGH PL,MOBILE,AL,36604
8400100040,HSC,IMAGINATION PLACE,2565432787,HTTP://WWW.CULTURALARTS.ORG,-86.00513,34.01391,501 BROAD ST,GADSDEN,AL,35901
8400100042,HSC,SAVARY LIBRARY - GALANGUE ROOM AFRICAN ARTIFACTS COLLECTION, , ,-86.10978,33.43327,627 WEST BATTLE STREET,TALLADEGA,AL,35160
8400100057,HSC,FORT MORGAN STATE HISTORIC SITE,2515407127,HTTP://FORTMORGAN.ORG/,-88.00148,30.22975,110 STATE HIGHWAY 180,GULF SHORES,AL,36542
8400100066,HSC,FENDALL HALL,3346878469,HTTP://PRESERVEALA.ORG/FENDALLHALL.ASPX?SM=G_E,-85.1683,31.8911,114 STONE RIDGE RD,EUFAULA,AL,36027
8400100070,HSC,CLEMENTS HOUSE,8022084283, ,-87.58354,33.23036,PO BOX 393,NORTHPORT,AL,35476
8400100073,HSC,CLARKE CO HISTORICAL MUSEUM,2512752014,HTTP://CLARKECOUNTYAL.COM/,-87.78712,31.68673,116 COBB STREET,GROVE HILL,AL,36451
8400100075,HSC,FAYETTE HISTORICAL MUSEUM,2059048791, ,-87.83093,33.68378,221 TEMPLE AVE S,FAYETTE,AL,35555
8400100077,HSC,CHEROKEE HISTORICAL MUSEUM,2569277835,HTTP://WWW.MUSEUMATCENTRE.COM/,-85.67829,34.15357,101 E MAIN ST,CENTRE,AL,35960
8400100082,HSC,AMERICAN VILLAGE,2056653535,HTTP://WWW.AMERICANVILLAGE.ORG/SITE/PAGESERVER,-86.85865,33.10622,3727 HIGHWAY 119,MONTEVALLO,AL,35115
8400100083,HSC,ALABAMA CONSTITUTION VILLAGE,2565648100,HTTP://WWW.EARLYWORKS.COM/ALABAMA-CONSTITUTION-VILLAGE/,-86.57223,34.72664,109 GATES AVENUE SOUTHWEST,HUNTSVILLE,AL,35801
8400100084,HSC,BELLE MONT MANSION,2566378513,HTTP://BELLEMONT.WEEBLY.COM/,-87.67689,34.68412,1569 COOK LANE,TUSCUMBIA,AL,35643
8400100085,HSC,BRAGG-MITCHELL MANSION,2514716364,HTTP://WWW.BRAGGMITCHELLMANSION.COM/,-88.0876,30.69172,1906 SPRINGHILL AVENUE,MOBILE,AL,36607
8400100089,HSC,HARRIS BARRETT SCHOOL, , ,-85.76358,32.47951,1755 COUNTY ROAD 27,TUSKEGEE,AL,36083
8400100091,HSC,PETERMAN HISTORICAL SOCIETY, , ,-87.26272,31.58501,167 MAIN ST,PETERMAN,AL,36471
8400100092,HSC,ARTSREVIVE,3348782787,HTTP://ARTSREVIVE.COM/,-87.02243,32.40623,PO BOX 2548,SELMA,AL,36702
8400100097,HSC,COLLINSVILLE HISTORICAL ASSOCIATION, ,HTTP://WWW.GEMOFTHEVALLEY.NET/,-85.86513,34.26189,PO BOX 849,COLLINSVILLE,AL,35961
8400100100,HSC,HENRY COUNTY VETERANS MEMORIAL PARK, , ,-85.12046,31.53708,PO BOX 115,SHORTERVILLE,AL,36373
8400100104,HSC,BARBOUR COUNTY GOVERNORS TRAIL, , ,-85.43541,31.84169,PO BOX 403,CLAYTON,AL,36016
8400100108,HSC,GARDENDALE HISTORICAL SOCIETY,2056315662, ,-86.83788,33.69468,PO BOX 1044,GARDENDALE,AL,35071
8400100109,HSC,HISTORIC RESTORATION SOCIETY, , ,-88.10617,30.69597,PO BOX 70047,MOBILE,AL,36670
8400100111,HSC,CULLMAN COUNTY HISTORICAL SOCIETY, , ,-86.85111,34.18014,PO BOX 804,CULLMAN,AL,35056
8400100114,HSC,OAKVILLE INDIAN MOUNDS,2569052494,HTTP://WWW.OAKVILLEINDIANMOUNDS.COM/,-87.18117,34.43827,1219 COUNTRY ROAD 187,DANVILLE,AL,35619
8400100115,HSC,AUBURN PRESERVATION LEAGUE, , ,-85.47712,32.61251,PO BOX 2945,AUBURN,AL,36831
8400100118,HSC,HISTORIC DOWNTOWN ANNISTON BUSINESS ASSOCIATION, , ,-85.82986,33.65731,1012 NOBLE STREET,ANNISTON,AL,36201
8400100123,HSC,FAYETTE COUNTY HISTORICAL SOCIETY, ,HTTP://FAYETTEHISTORICALSOCIETY.COM,-87.82637,33.68683,PO BOX 534,FAYETTE,AL,35555
8400100129,HSC,WEST JEFFERSON COUNTY HISTORICAL SOCIETY,3342065418,HTTP://WWW.JEFFCOHISTORY.COM/,-86.9849,33.3455,1740 EASTERN VALLEY ROAD,BESSEMER,AL,35021
8400100130,HSC,LEE COUNTY HISTORICAL SOCIETY,3348873007,HTTP://WWW.LEECOUNTYHISTORICALSOCIETY.ORG/,-85.59934,32.60443,6500 STAGE RD,LOACHAPOKA,AL,36865
8400100131,HSC,LANDMARKS OF DEKALB COUNTY, , ,-85.76825,34.47746,PO BOX 680518,FORT PAYNE,AL,35968
8400100132,HSC,SELMA DALLAS COUNTY HISTORIC PRESERVATION SOCIETY,3348746600,HTTP://HISTORICSELMA.ORG/,-87.02243,32.40623,PO BOX 586,SELMA,AL,36702
8400100133,HSC,PEA RIVER HISTORICAL & GENEALOGICAL SOCIETY,3343932901,HTTP://WWW.PEARIVER.ORG/,-85.85463,31.31533,108 S MAIN STREET,ENTERPRISE,AL,36331
8400100135,HSC,ST CLAIR HISTORICAL SOCIETY, , ,-86.39394,33.68029,150 WARE AVE,ODENVILLE,AL,35120
8400100136,HSC,TWICKENHAM HISTORIC PRESERVATION DISTRICT ASSOCIATION,2565367718, ,-86.58248,34.72973,300 GATES AVE SE,HUNTSVILLE,AL,35801
8400100138,HSC,ESCAMBIA COUNTY HISTORICAL SOCIETY,2518091528,HTTP://WWW.ESCOHIS.ORG/,-87.07114,31.10792,PO BOX 276,BREWTON,AL,36427
8400100139,HSC,TALLEDEGA HISTORICAL ASSOCIATION, , ,-86.10313,33.43764,PO BOX 1042,TALLADEGA,AL,35161
8400100142,HSC,HOLLY POND HISTOICAL SOCIETY, , ,-86.62915,34.18191,3425 COUNTY ROAD 1650,HOLLY POND,AL,35083
8400100143,HSC,VALORS VOICE,2563022616, ,-86.43677,34.36233,490 HARDING RD,ARAB,AL,35016
8400100144,HSC,ALABAMA GOSPEL MUSIC CULTURAL ARTS CENTER,2054472208,HTTP://WWW.ALABAMAGOSPELCENTER.ORG,-86.84821,33.5115,730 8TH AVE W,BIRMINGHAM,AL,35204
8400100148,HSC,IRONDALE AL HISTORICAL SOCIETY, ,HTTP://IRONDALETODAY.COM/?P=129,-86.70836,33.53794,1910 1ST AVE S,IRONDALE,AL,35210
8400100153,HSC,ALABAMA CITY HISTORICAL ASSOCIATION, , ,-86.08196,33.99526,PO BOX 4205,GADSDEN,AL,35904
8400100154,HSC,VREDENBURGH HISTORICAL SOCIETY, , ,-87.37517,31.8139,176 STEWART CIRCLE,VREDENBURGH,AL,36481
8400100156,HSC,SPRUCE PINE HISTORICAL SOCIETY, , ,-87.78503,34.41417,PO BOX 32,SPRUCE PINE,AL,35585
8400100157,HSC,ST FLORIAN HISTORICAL PRESERVATION SOCIETY, , ,-87.62379,34.87336,57 SAINT FLORIAN RD,FLORENCE,AL,35630
8400100158,HSC,VINCENT HISTORICAL AND ENVIRONMENTAL SOCIETY, , ,-86.39859,33.41177,PO BOX 299,VINCENT,AL,35178
8400100159,HSC,PICKENS COUNTY COURTHOUSE, ,HTTP://WWW.COURTHOUSEWINDOW.COM/THE-COURTHOUSE.HTML,-88.1561,33.25027,PO BOX 382,CARROLLTON,AL,35447
8400100160,HSC,DIVINE DESTINYS DANCE, , ,-86.65841,33.72529,5045 GOLD LEAF LN,PINSON,AL,35126
8400100161,HSC,COAST GUARD HISTORICAL SOCIETY, , ,-87.52815,34.70098,2050 OAK ST,LEIGHTON,AL,35646
8400100168,HSC,MUSEUM OF MOBILE,2512087569, ,-88.04303,30.6959,PO BOX 2068,MOBILE,AL,36652
8400100169,HSC,CENTER POINT WOMENS PRESERVATION SOCIETY, , ,-86.67516,33.66709,349 37TH CT NE,CENTER POINT,AL,35215
8400100170,HSC,RANDOLPH COUNTY HISTORICAL SOCIETY,7655841334,HTTP://WWW.RANDOLPHHISTORY.COM/,-84.98254,40.16907,416 SOUTH MERIDIAN STREET,WINCHESTER,IN,36255
8400100171,HSC,NORTH ALABAMA VIETNAM PILOTS ASSOCIATION, ,HTTP://17TH.ORG/GALLERY2/MAIN.PHP/V/LHAAS/,-86.64048,34.70022,PO BOX 8406,HUNTSVILLE,AL,35808
8400100173,HSC,TUSCALOOSA GENEALOGICAL SOCIETY, ,HTTP://WWW.TUSCALOOSAGENEALOGY.COM/,-87.56242,33.2029,PO BOX 20802,TUSCALOOSA,AL,35402
8400100174,HSC,BROWN HAWKINS RURAL LEARNING CENTER, , ,-86.25291,32.3314,3936 ROUSE RIDGE CT,MONTGOMERY,AL,36111
8400100180,HSC,EUTAW AREA CHAMBER OF COMMERCE TRUST, , ,-87.90988,32.88911,PO BOX 31,EUTAW,AL,35462
8400100181,HSC,STEPHEN JONAH KING COMMUNITY PRESERVATION GROUP, , ,-86.85799,34.18203,1535 ANN ST NW,CULLMAN,AL,35055
8400100184,HSC,TUSKEGEE AIRMEN NATIONAL HISTORIC SITE,2514948382,HTTP://WWW.FRIENDSOFTUSKEGEEAIRMENNHS.ORG/,-85.68729,32.42987,PO BOX 831199,TUSKEGEE,AL,36083
8400100185,HSC,PINTLALA HISTORICAL ASSOCIATION,3342887414, ,-86.36178,32.15148,621 PETTUS RD,HOPE HULL,AL,36043
8400100186,HSC,LEDS SCENIC BYWAY MANAGEMENT TEAM, , ,-86.57852,33.53762,6554 LYNN CIR,LEEDS,AL,35094
8400100187,HSC,GENEVA COUNTY ALABAMA HISTORICAL SOCIETY,3346842100, ,-85.87905,31.0453,PO BOX 206,GENEVA,AL,36340
8400100188,HSC,MARION COUNTY HISTORICAL SOCIETY, ,HTTP://WWW.MCHSAL.ORG/,-87.99838,34.16018,PO BOX 492,HAMILTON,AL,35570
8400100189,HSC,CHICKASAW HISTORIC PRESERVATION SOCIETY, , ,-88.08103,30.7655,209 3RD ST,CHICKASAW,AL,36611
8400100191,HSC,9TH AND 10TH (HORSE) CAVALRY ASSOCIATION, , ,-86.81171,33.5128,520 16TH ST N,BIRMINGHAM,AL,35462
8400100192,HSC,ALABAMA LIGHTHOUSE ASSOCIATION, ,HTTP://WWW.ALABAMALIGHTHOUSES.COM/,-88.04401,30.69651,PO BOX 250,MOBILE,AL,36601
8400100196,HSC,PLEASANT GROVE PRIMITIVE BAPTIST CHURCH, , ,-85.56155,31.46362,401 S COUNTY RD 20,OZARK,AL,36360
8400100197,HSC,HOUSTON HISTORICAL SOCIETY, , ,-87.27872,34.15651,PO BOX 74,HOUSTON,AL,35572
8400100198,HSC,EPES HISTORICAL ASSOCIATION,2056527190, ,-88.16305,32.67166,12428 SUMTER 20,EPES,AL,35460
8400100210,HSC,CLAY LEGACY ASSOCIATION,2056815158,HTTP://CLAYHISTORICALSOCIETY.COM/,-86.60455,33.69993,PO BOX 61,CLAY,AL,35048
8400100214,HSC,BIRMINGHAM JEFFERSON HISTORICAL SOCIETY TERM, , ,-86.747,33.50743,PO BOX 130285,BIRMINGHAM,AL,35213
8400100215,HSC,CONDE CHARLOTTE MUSEUM HOUSE,2513425199, ,-87.5261,33.24112,2600 SARATOGA LN,TUSCALOOSA,AL,35406
8400100217,HSC,PEINHARDT LIVING HISTORY FARM FOUND ATION, , ,-86.86306,34.17122,1831 4TH ST SW,CULLMAN,AL,35055
8400100219,HSC,HANCEVILLE HISTORICAL PRESERVATION GROUP, , ,-86.76098,34.11784,773 COUNTY ROAD 622,HANCEVILLE,AL,35077
8400100222,HSC,ALABAMA NATIONAL GUARD HISTORICAL SOCIETY,2058330135, ,-86.7397,33.56265,6900 43RD AVENUE NORTH NO 200,BIRMINGHAM,AL,35206
8400100223,HSC,HOOVER HISTORICAL SOCIETY,2058229392,HTTP://WWW.HOOVERHISTORICALSOCIETY.ORG/,-86.85433,33.40819,569 PARK AVENUE,HOOVER,AL,35236
8400100225,HSC,VESTAVIA HILLS HISTORICAL SOCIETY,2059780155,HTTP://VESTAVIALIBRARY.ORG/,-86.78845,33.4368,1112 MONTGOMERY HWY,VESTAVIA,AL,35216
8400100226,HSC,GUNTERSVILL HISTORICAL SOCIETY, ,HTTP://WWW.GUNTERSVILLEHISTORICALSOCIETY.ORG/,-86.37909,34.36776,PO BOX 236,GUNTERSVILLE,AL,35976
8400100227,HSC,WALKER COUNTY GENEALOGICAL SOCIETY, , ,-87.27733,33.82961,PO BOX 3408,JASPER,AL,35502
8400100229,HSC,BIRMINGHAM CIVIL RIGHTS INSTITUTE,2053289696,HTTP://WWW.BCRI.ORG/INDEX.HTML,-86.81171,33.5128,520 16TH ST N,BIRMINGHAM,AL,35203
8400100231,HSC,ALABAMA HISTORICAL RADIO SOCIETY,2059677000,HTTP://ALABAMAHISTORICALRADIOSOCIETY.ORG,-86.81185,33.51784,600 N 18TH STREET,BIRMINGHAM,AL,35213
8400100234,HSC,JEMISON-VAN DE GRAAFF MANSION FOUNDATION,2057582906,HTTP://WWW.JEMISONMANSION.COM/,-87.56509,33.20224,1305 GREENSBORO AVE,TUSCALOOSA,AL,35403
8400100236,HSC,LINDEN HISTORICAL SOCIETY, ,HTTP://WWW.LINDEN-NJ.ORG/,-87.73882,32.21881,14230 AL HIGHWAY 28,LINDEN,AL,36748
8400100237,HSC,MONTGOMERY COUNTY HISTORICAL SOCIETY,3342641837, ,-86.30888,32.37047,512 S COURT ST,MONTGOMERY,AL,36104
8400100238,HSC,ALABAMA CENTER OF MILITARY HISTORY, , ,-86.58225,34.69017,2060A AIRPORT RD SW,HUNTSVILLE,AL,35801
8400100242,HSC,NAUVOO HISTORICAL SOCIETY,2053871709,HTTP://WWW.NAUVOOHISTORICALSOCIETY.ORG,-87.34601,33.97136,9959 HIGHWAY 195,JASPER,AL,35503
8400100246,HSC,HISTORIC MOBILE PRESERVATION SOCIETY, ,HTTP://HMPS.PUBLISHPATH.COM/,-88.06003,30.68068,300 OAKLEIGH PL,MOBILE,AL,36604
8400100249,HSC,MARENGO COUNTY HISTORICAL SOCIETY,3342890599,HTTP://WWW.MARENGOMUSEUM.COM/,-87.84868,32.49096,PO BOX 159,DEMOPOLIS,AL,36732
8400100252,HSC,LANDMARKS FOUNDATION OF MONTGOMERY,3342404500,HTTP://WWW.OLDALABAMATOWN.COM,-86.30519,32.38218,301 COLUMBUS ST,MONTGOMERY,AL,36104
8400100253,HSC,ALABAMA HISTORIC IRONWORKS COMMISSION, , ,-87.08321,33.26851,12632 CONFEDERATE PKWY,MC CALLA,AL,35111
8400100255,HSC,RICHARDS-DAR HOUSE MUSEUM,2512087320,HTTP://WWW.RICHARDSDARHOUSE.COM,-88.05529,30.68979,256 NORTH JOACHILN STREE,MOBILE,AL,36603
8400100256,HSC,MOBILE HISTORIC DEVELOPMENT COMMISSION,2512087281, ,-88.10646,30.6708,205 GOVERNMENT STREET 2ND FLOOR S TOWER,MOBILE,AL,36633
8400100258,HSC,OLD TOWNE PRESERVATION ASSOCIATION, , ,-86.58271,34.73564,112 STEELE ST NE,HUNTSVILLE,AL,35801
8400100259,HSC,HISTORIC HALE COUNTY PRESERVATION SOCIETY, , ,-87.59443,32.70357,1110 MAIN ST,GREENSBORO,AL,36744
8400100262,HSC,LIMESTONE COUNTY HISTORICAL SOCIETY, ,HTTP://LIMESTONECOUNTYHISTORICALSOCIETY.ORG,-86.98225,34.80508,PO BOX 82,ATHENS,AL,35612
8400100264,HSC,CLARKE COUNTY HISTORICAL SOCIETY & MUSEUM,2512752014,HTTP://CLARKECOUNTYAL.COM/,-87.78712,31.68673,116 COBB STREET,GROVE HILL,AL,36451
8400100265,HSC,SHELBY COUNTY HISTORICAL SOCIETY, , ,-86.60898,33.20482,1854 N MAIN ST,COLUMBIANA,AL,35051
8400100266,HSC,WILCOX HISTORICAL SOCIETY,3346829825, ,-87.3061,31.99763,PO BOX 464,CAMDEN,AL,36726
8400100267,HSC,BUTLER COUNTY HISTORICAL & GENEALOGICAL SOCIETY,3343839564, ,-86.62734,31.83257,309 FORT DALE RD,GREENVILLE,AL,36037
8400100273,HSC,CHOCTAW COUNTY HISTORICAL SOCIETY, , ,-88.21657,32.0877,210 WEST SMITH STREET,BUTLER,AL,36904
8400100274,HSC,OPELIKA HISTORIC PRESERVATION SOCIETY,3347490898, ,-85.38525,32.65391,611 NORTH 8TH ST,OPELIKA,AL,36803
8400100275,HSC,ALICEVILLE HISTORICAL PRESERVATION COMMISSION, , ,-88.13725,33.13138,222 PINE HILL LN,ALICEVILLE,AL,35442
8400100277,HSC,NATCHEZ TRACE GENALOGICAL SOCIETY, , ,-87.6751,34.80175,PO BOX 420,FLORENCE,AL,35631
8400100278,HSC,HUNTSVILLE-MADISON COUNTY HISTORICAL SOCIETY,2565365737,HTTP://WWW.HMCHS.ORG,-86.59342,34.72753,PO BOX 666,HUNTSVILLE,AL,35804
8400100280,HSC,GREENE COUNTY HISTORICAL SOCIETY,2052920015, ,-87.89041,32.84129,310 MAIN STREET,EUTAW,AL,35462
8400100283,HSC,AUTAUGA COUNTY HERITAGE ASSOCIATION,3343610961,HTTP://WWW.AUTAUGAHISTORY.ORG/,-86.47176,32.45953,102 E MAIN ST,PRATTVILLE,AL,36067
8400100284,HSC,ARLINGTON HISTORICAL ASSOCIATION, , ,-86.747,33.50743,PO BOX 130237,BIRMINGHAM,AL,35213
8400100288,HSC,CAPRI COMMUNITY FILM SOCIETY,3342624858,HTTP://WWW.CAPRITHEATRE.ORG,-86.29161,32.35213,1045 E FAIRVIEW AVE,MONTGOMERY,AL,36106
8400100289,HSC,PERRY COUNTY HISTORICAL AND PRESERVATION SOCIETY, ,HTTP://WWW.PERRYCOUNTYHISTORICALANDPRESERVATIONSOCIETY.COM/,-87.31793,32.63446,204 WEST MONROE STREET,MARION,AL,36756
8400100291,HSC,COVINGTON HISTORICAL SOCIETY,3342220674,HTTP://WWW.3NMSM.COM/,-86.48793,31.30243,PO BOX 1582,ANDALUSIA,AL,36420
8400100292,HSC,SUMTER COUNTY HISTORICAL & PRESERVATION SOCIETY,2056524015, ,-88.13818,32.56319,207 N WASHINGTON ST,LIVINGSTON,AL,35470
8400100294,HSC,WASHINGTON COUNTY HISTORICAL SOCIETY & MUSEUM,3348472201, ,-88.29411,31.47253,PO BOX 1166,CHATOM,AL,36518
8400100299,HSC,MADISON STATION HISTORICAL PRESERVATION SOCIETY, ,HTTP://WWW.HISTORICMADISONSTATION.COM/,-86.74919,34.69407,23 FRONT ST,MADISON,AL,35758
8400100300,HSC,COOSA COUNTY HISTORICAL SOCIETY, , ,-86.21548,32.86725,PO BOX 5,ROCKFORD,AL,35136
8400100306,HSC,CLAY COUNTY HISTORICAL SOCIETY,2562520138,HTTP://CLAYHISTORY.WIX.COM:80/CLAYHISTORY,-85.84636,33.24363,PO BOX 998,ASHLAND,AL,36251
8400100308,HSC,ALABAMA TRUST FOR HISTORIC PRESERVATION,2056523497,HTTP://WWW.ALABAMATRUST.INFO/,-88.13818,32.56319,UNIVERSITY OF WEST ALABA,LIVINGSTON,AL,35470
8400100309,HSC,PICKENS COUNTY GENEALOGICAL SOCIETY,2053647830, ,-87.89038,33.32262,PO BOX 793,GORDO,AL,35466
8400100310,HSC,FORT MIMS RECONSTRUCTION ASSOCIATION, , ,-87.42077,31.4705,94 WEBB RD,FRISCO CITY,AL,36445
8400100312,HSC,COOSA HISTORICAL PRESERVATION AUTHORITY, , ,-86.21548,32.86725,PO BOX 39,ROCKFORD,AL,35136
8400100314,HSC,BIRMINGHAM LANDMARKS,2052522262,HTTP://LIGHTUPTHELYRIC.COM/,-86.80949,33.51496,1817 3RD AVE N,BIRMINGHAM,AL,35203
8400100316,HSC,EIGHTH AIR FORCE HISTORICAL SOCIETY, , ,-86.82467,33.42958,2208 SHERWOOD PL,HOOVER,AL,35226
8400100320,HSC,RUSSELL COUNTY HISTORICAL COMMISSION,3342978225,HTTP://WWW.RCALA.COM/RCH.HTML,-85.0009,32.46851,1040 BROAD ST,PHENIX CITY,AL,36868
8400100321,HSC,ARAB HISTORICAL SOCIETY,2565866397, ,-86.49274,34.32768,224 CITY PARK DRIVE NORTHEAST,ARAB,AL,35016
8400100322,HSC,CRENSHAW COUNTY HISTORICAL SOCIETY,3343356575,HTTP://MUSEUMS.HACKINGTHEHUMANITIES.ORG/ITEMS/SHOW/44736,-86.28191,31.74659,PO BOX 633,LUVERNE,AL,36049
8400100323,HSC,ETOWAH HISTORICAL SOCIETY, , ,-86.04895,34.02262,2829 W MEIGHAN BLVD,GADSDEN,AL,35902
8400100325,HSC,HARTSELLE HISTORICAL SOCIETY, ,HTTPS://WWW.FACEBOOK.COM/HARTSELLEHISTORY,-86.93179,34.44638,307 COLLEGE ST NE,HARTSELLE,AL,35640
8400100326,HSC,LAWRENCE COUNTY HISTORICAL COMMISSION,2569741757,HTTP://WWW.LAWRENCECOARCHIVES.COM/,-87.29119,34.48047,698 MAIN STREET,MOULTON,AL,35650
8400100330,HSC,OLD MOBILE, , ,-88.12781,30.66739,PO BOX 161314,MOBILE,AL,36616
8400100332,HSC,ELMORE COUNTY HISTORICAL SOCIETY, ,HTTP://WWW.WETUMPKACHAMBER.COM/MAIN_PAGE.HTML,-86.20556,32.53707,112 S MAIN ST,WETUMPKA,AL,36092
8400100338,HSC,BRUNDIDGE HISTORICAL SOCIETY, ,HTTP://WWW.PIDDLE.ORG/,-85.81574,31.72046,123 S MAIN ST,BRUNDIDGE,AL,36010
8400100348,HSC,LAMAR COUNTY GENEALOGICAL AND HISTORICAL SOCIETY, , ,-88.10535,33.75431,PO BOX 357,VERNON,AL,35592
8400100350,HSC,ATMORE HISTORICAL SOCIETY,2513685234,HTTP://WWW.CITYOFATMORE.COM/CONTENT.ASP?ID=139328,-87.49114,31.00903,11 ROLLINS PL,ATMORE,AL,36502
8400100351,HSC,LAGRANGE LIVING HISTORICAL ASSOCIATION,2564469324,HTTPS://WWW.FACEBOOK.COM/LAGRANGE.COLLEGESITE.PARK,-87.53617,34.66894,PO BOX 306,LEIGHTON,AL,35646
8400100352,HSC,EAST MONTGOMERY COUNTY HISTORICAL SOCIETY, , ,-86.09503,32.35664,PO BOX 49,MOUNT MEIGS,AL,36057
8400100353,HSC,LIMESTONE COUNTY ALABAMA ARCHIVES,2562336404,HTTP://WWW.LIMESTONEFOA.ORG/,-86.97004,34.80241,102 W WASHINGTON STREET,ATHENS,AL,35612
8400100354,HSC,DEFENDERS OF FORT MORGAN,2515402420, ,-87.68308,30.27212,1929 STATE HIGHWAY 180,GULF SHORES,AL,36542
8400100357,HSC,MORGAN COUNTY GENEALOGICAL SOCIETY, , ,-86.98597,34.61182,624 BANK ST NE,DECATUR,AL,35601
8400100360,HSC,DONNELL HOUSE BOARD,2562320743, ,-86.98225,34.80508,601 & 1/2 SOUTH CLINTON STREET,ATHENS,AL,35612
8400100361,HSC,BLACK FREEDMEN'S LIVING HISTORICAL FARM FOR CHILDREN,3348445700, ,-86.96219,32.00294,PO BOX 106,FURMAN,AL,36741
8400100362,HSC,MCCOY CENTER FOR COMMUNITY SERVICE,2053272957, ,-86.84821,33.5115,730 8TH AVE W,BIRMINGHAM,AL,35204
8400100366,HSC,MONTROSE HISTORIC PRESERVATION SOCIETY, , ,-87.90195,30.56595,PO BOX 637,MONTROSE,AL,36559
8400100368,HSC,UNION PRESERVATION SOCIETY, , ,-85.16797,32.41973,200 STEWART RD,SEALE,AL,36875
8400100369,HSC,FORT DALE PIONEER SETTLEMENT, , ,-86.61038,31.60889,158 PAGE RD,GEORGIANA,AL,36033
8400100372,HSC,BLOUNTSVILLE HISTORICAL SOCIETY, ,HTTP://WWW.BLOUNTSVILLEHISTORICALSOCIETY.COM,-86.60181,34.1104,1181 BULLARD RD,BLOUNTSVILLE,AL,35031
8400100379,HSC,HOLT STREET BAPTIST CHURCH HISTORICAL SOCIETY,3342614141, ,-86.30851,32.35256,1870 S COURT ST,MONTGOMERY,AL,36104
8400100380,HSC,ALABAMA COMPANY JAMESTOWNE SOCIETY, , ,-86.52653,34.6575,7920 VALLEY BEND DRIVE,HUNTSVILLE,AL,35223
8400100383,HSC,HISTORIC NORTHPORT,2053390488, ,-87.57759,33.22819,1802 20TH AVENUE,NORTHPORT,AL,35476
8400100384,HSC,SELMA TO MONTGOMERY NATIONAL HISTORIC TRAIL,3348771984,HTTP://WWW.NPS.GOV/SEMO/INDEX.HTM,-86.30681,32.33403,46 E PATTON AVE,MONTGOMERY,AL,36105
8400100387,HSC,LEEDS HISTORICAL SOCIETY,2056992721, ,-86.58808,33.46095,PO BOX 465,LEEDS,AL,35094
8400100389,HSC,SKYLINE FARM HERITAGE ASSOCIATION, , ,-86.22614,34.67005,802CORD25,SCOTTSBORO,AL,35776
8400100393,HSC,ALABAMA TRAIL OF TEARS CORRIDOR ASSOCIATION,6787433868, ,-86.61731,34.7084,PO BOX 11145,HUNTSVILLE,AL,35814
8400100395,HSC,ALABAMA GOVERNORS MANSION, ,HTTPS://WWW.FACEBOOK.COM/FOAGM,-86.3031,32.36426,1001 S HULL ST,MONTGOMERY,AL,36104
8400100402,HSC,B BATTERY 711 AAA GUN BATTALION MEMORIAL, , ,-87.78158,30.87652,PO BOX 1173,BAY MINETTE,AL,36507
8400100403,HSC,PEOPLES HISTORICAL MUSEUM,3343616006, ,-86.47505,32.46754,343 N COURT ST STE H,PRATTVILLE,AL,36067
8400100404,HSC,HISTORIC BETHEL BAPTIST CHURCH, , ,-86.80186,33.5513,3200 28TH AVE N,BIRMINGHAM,AL,35207
8400100405,HSC,SYLACAUGA HISTORICAL PRESERVATION AND CONSERVATION, , ,-86.26153,33.18505,PO BOX 676,SYLACAUGA,AL,35150
8400100407,HSC,AUTAUGA GENEALOGICAL SOCIETY, , ,-86.42472,32.46438,PO BOX 680668,PRATTVILLE,AL,36068
8400100408,HSC,COLUMBIA HISTORIAL SOCIETY,3346968029,HTTP://WWW.COLUMBIAHISTORICALSOCIETYOFALABAMA.ORG/,-85.12623,31.27906,PO BOX 335,COLUMBIA,AL,36319
8400100409,HSC,AIRCRAFT ENGINE HISTORICAL SOCIETY,2566831458,HTTP://WWW.ENGINEHISTORY.ORG,-86.63848,34.75203,4608 CHARLES DR NW,HUNTSVILLE,AL,35816
8400100410,HSC,CHOCTAW COUNTY GENEALOGICAL SOCIETY, , ,-88.17437,32.03716,4244 COUNTY ROAD 43,BUTLER,AL,36904
8400100419,HSC,BIRMINGHAM HISTORICAL SOCIETY,2052511880,HTTP://BHISTORICAL.ORG,-86.78154,33.49589,556 OLDE ENGLISH LN,MOUNTAIN BRK,AL,35223
8400100423,HSC,TUSCALOOSA COUNTY PRESERVATION SOCIETY,2057586138,HTTP://WWW.HISTORICTUSCALOOSA.ORG/,-87.56643,33.20494,1010 GREENSBORO AVE,TUSCALOOSA,AL,35403
8400100424,HSC,EUFAULA HERITAGE ASSOCIATION,3346873793,HTTP://WWW.EUFAULAPILGRIMAGE.COM/,-85.14599,31.89681,340 N EUFAULA AVE,EUFAULA,AL,36072
8400100425,HSC,MARENGO COUNTY HISTORICAL SOCIETY, , ,-87.84868,32.49096,PO BOX 490,DEMOPOLIS,AL,36732
8400100428,HSC,ALABAMA DEPARTMENT OF ARCHIVES AND HISTORY,3343531936,HTTP://MUSEUM.ALABAMA.GOV,-86.291,32.37771,624 WASHINGTON AVE,MONTGOMERY,AL,36130
8400100429,HSC,HUNTSVILLE - MADISON COUNTY ATHLETIC HALL OF FAME, ,HTTP://WWW.HMCAHOF.COM/,-86.59342,34.72753,PO BOX 566,HUNTSVILLE,AL,35804
8400100430,HSC,ROEBUCK SPRINGS HISTORIC PRESERVATION SOCIETY, , ,-86.70574,33.57503,508 RIDGE RD,BIRMINGHAM,AL,35206
8400100433,HSC,ALABAMA BENCH AND BAR HISTORICAL SOCIETY, ,HTTP://ALABAMABENCHANDBAR.ORG/,-86.31101,32.37375,PO BOX 722,MONTGOMERY,AL,36104
8400100440,HSC,TALLAPOOSSEE HISTORICAL SOCIETY, , ,-85.73899,32.81459,151 PEARSON CIR,DADEVILLE,AL,36853
8400100441,HSC,TRIANA HISTORICAL SOCIETY, , ,-86.75223,34.66738,PO BOX 6021,HUNTSVILLE,AL,35813
8400100443,HSC,SAFE HOUSE MUSEUM,3346242030,HTTP://SAFEHOUSEMUSEUM.RURALSTUDIOBLOGS.ORG/SAFEHOUSEMUSEUM#_=_,-87.60943,32.69759,518 MARTIN LUTHER KING D,GREENSBORO,AL,36744
8400100444,HSC,MARENGO COUNTY HISTORY-ARCHIVES,3342890599,HTTP://WWW.MARENGOMUSEUM.COM/DEFAULT.HTM,-87.83766,32.51644,101 NORTH WALNUT AVENUE,DEMOPOLIS,AL,36732
8400100446,HSC,KILLEN HISTORICAL COMMISSION, , ,-87.55926,34.85189,9160 TURTLE POINT DRIVE,KILLEN,AL,35645
8400100447,HSC,ENDOWMENT FOR THE PRESERVATION 0F ELEVATING HISTORY, , ,-88.09607,30.67475,354 MORGAN AVE,MOBILE,AL,36606
8400100448,HSC,GURLEY HISTORICAL ASSOCIATION, , ,-86.43197,34.7027,PO BOX 154,GURLEY,AL,35748
8400100449,HSC,ASHVILLE MASONIC LODGE COUNCIL, , ,-86.27299,33.79484,99 STEVENS FARM RD,ASHVILLE,AL,35953
8400100451,HSC,HENRY COUNTY HISTORICAL GROUP, ,HTTPS://WWW.HCHG.ORG/,-85.21885,31.47599,5679 CR 53,ABBEVILLE,AL,36345
8400100453,HSC,MENTONE AREA PRESERVATION ASSOCIATION, ,HTTPS://WWW.FACEBOOK.COM/MENTONEAREAPRESERVATIONASSOCIATIONMAPA,-85.56267,34.53259,PO BOX 50,MENTONE,AL,35984
8400100454,HSC,LANIER HIGH SCHOOL HISTORIC SOCIETY, , ,-85.21922,32.86426,PO BOX 569,LANETT,AL,36863
8400100456,HSC,FORT MORGAN FOUNDATION,2515405447, ,-88.04213,30.69305,56 ST JOSEPH ST 11TH FLO,MOBILE,AL,36602
8400100458,HSC,MILDRED WARNER HOUSE,2055536200, ,-87.56158,33.2084,1925 8TH STREET,TUSCALOOSA,AL,35404
8400100463,HSC,RUSSELL CAVE NATIONAL MONUMENT,2564952672, ,-85.80641,34.98079,3729 COUNTY ROAD 98,BRIDGEPORT,AL,35740
8400100464,HSC,HORSESHOE BEND NATIONAL MILITARY PARK,2562347111, ,-85.68971,33.02137,11288 HORSESHOE BEND ROAD,DAVISTON,AL,36256
8400100465,HSC,LITTLE RIVER CANYON NATIONAL PRESERVE,2568459605, ,-85.70126,34.45604,4322 LITTLE RIVER TRAIL NE,FORT PAYNE,AL,35967
8400100468,HSC,TUSKEGEE INSTITUTE,3347276390, ,-85.70931,32.42834,1212 WEST MONTGOMERY ROAD,TUSKEGEE,AL,36088
8400200003,HSC,UNALASKA HISTORIC PRESERVATION COMMISSION,9075811483, ,-166.54126,53.87139,CITY GOVERNMENT OFFICE,UNALASKA,AK,99685
8400200006,HSC,SKAGWAY HISTORICAL MUSEUM & ARCHIVES,9079833420, ,-135.31356,59.45637,700 SPRING ST,SKAGWAY,AK,99840
8400200009,HSC,OSCAR ANDERSON HOUSE,9072742336,HTTP://WWW.AAHP-ONLINE.NET,-149.88169,61.22198,PO BOX 102205,ANCHORAGE,AK,99510
8400200010,HSC,RUSSIAN ORTHODOX MUSEUM,9072767257, ,-149.73354,61.19955,PO BOX 212315,ANCHORAGE,AK,99521
8400200022,HSC,EAGLE HISTORICAL SOCIETY,9075472325, ,-141.20294,64.78917,PO BOX 23,EAGLE,AK,99738
8400200028,HSC,BARANOV MUSEUM,9074865920,HTTP://WWW.BARANOVMUSEUM.ORG/,-152.39915,57.7885,101 E MARINE WAY,KODIAK,AK,99615
8400200032,HSC,TENAKEE HISTORICAL COLLECTION,9077362243,HTTP://WWW.TENAKEEHISTORICALCOLLECTION.ORG/,-135.21791,57.77996,PO BOX 633,TENAKEE SPGS,AK,99841
8400200037,HSC,PELELIO WAR HISOTIRCAL SOCIETY,9077455541,HTTP://WWW.PELELIUHISTORICAL.ORG,-149.22797,61.68606,9201 N SUN VALLEY DR,PALMER,AK,99645
8400200039,HSC,GUSTAVUS HISTORICAL ARCHIVES AND ANTIQUITIES,9076973042,HTTP://WWW.GUSTAVUSHISTORY.ORG,-136.97103,58.82437,PO BOX 14,GUSTAVUS,AK,99826
8400200040,HSC,KENAI HISTORICAL SOCIETY, , ,-151.23509,60.58442,PO BOX 1348,KENAI,AK,99611
8400200043,HSC,JESSE LEE HOME,9078658901, ,-149.38716,60.20885,PO BOX 737,SEWARD,AK,99664
8400200046,HSC,HOPE AND SUNRISE HISTORICAL SOCIETY,9077823740, ,-149.54407,60.88669,64851 SECOND STREET,HOPE,AK,99605
8400200052,HSC,WHALE PROJECT, ,HTTP://WWW.ALASKAWHALEPROJECT.ORG,-134.7312,58.37524,15225 POINT LOUISA RD,JUNEAU,AK,99801
8400200054,HSC,TREADWELL HISTORIC PRESERVATION & RESTORATION SOCIETY, ,HTTP://P3NLHCLUST404.SHR.PROD.PHX3.SECURESERVER.NET/SHAREDCONTENT/REDIRECT_0.HTML,-134.3996,58.27846,PO BOX 240584,DOUGLAS,AK,99824
8400200056,HSC,HAL HOPKINS WW II MEMORIAL, , ,-149.76884,61.19491,5929 CAMDEN CIR,ANCHORAGE,AK,99504
8400200060,HSC,CAPE DECISION LIGHTHOUSE SOCIETY, ,HTTP://CAPEDECISIONLIGHT.ORG/,-135.3427,57.05246,224 KATLIAN ST,SITKA,AK,99835
8400200061,HSC,RIO GRANDE MODELING & HISTORICAL SOCIETY,6142995064,HTTP://WWW.DRGW.ORG/,-104.75644,38.89506,PO BOX 25114,COLORADO SPG,CO,80936
8400200063,HSC,HISTORIC HALL, , ,-147.82945,64.85079,PO BOX 80589,FAIRBANKS,AK,99708
8400200064,HSC,HUBBELL FAMILY HISTORICAL SOCIETY, ,HTTP://HUBBELL.ORG/,-151.23509,60.58442,PO BOX 1390,KENAI,AK,99611
8400200069,HSC,BRISTOL BAY HISTORICAL SOCIETY, , ,-156.71037,58.85984,PO BOX 276,NAKNEK,AK,99633
8400200070,HSC,CHILKAT VALLEY HISTORICAL SOCIETY,9077662366, ,-135.47365,59.24675,11 MAIN STREET,HAINES,AK,99827
8400200072,HSC,WESTERN HISTORY ASSOCIATION,9074746508,HTTP://WESTERNHISTORYASSOCIATION.ORG/,-147.87837,64.81712,605 GRUENING,FAIRBANKS,AK,99775
8400200075,HSC,GLENN HIGHWAY SCENIC BYWAY ASSOCIATION, ,HTTP://WWW.GLENNHIGHWAY.ORG/,-149.52682,61.31504,PO BOX 773423,EAGLE RIVER,AK,99577
8400200077,HSC,RUSSIAN ORTHODOX SACRED SITES IN ALASKA,9076443463, ,-149.73354,61.19955,PO BOX 212315,ANCHORAGE,AK,99521
8400200081,HSC,GOLDBELT HERITAGE FOUNDATION,9077901424, ,-134.47205,58.33036,3200 HOSPITAL DRIVE SUITE 203,JUNEAU,AK,99801
8400200083,HSC,MCKINLEY HISTORICAL SOCIETY & MUSEUM, , ,-149.87975,61.1804,240 E TUDOR RD,ANCHORAGE,AK,99503
8400200084,HSC,ALASKA LIGHTHOUSE ASSOCIATION, , ,-134.40583,58.28299,2116 B 2ND ST,DOUGLAS,AK,99824
8400200088,HSC,SAXMAN, , ,-131.68901,55.38073,ROUTE 2 BOX 1 - SAXMAN,KETCHIKAN,AK,99901
8400200092,HSC,TANANA YUKON HISTORICAL SOCIETY,9074558947,HTTP://WWW.FAIRBANKS-TYHS.ORG/,-147.71869,64.84339,535 2ND AVE,FAIRBANKS,AK,99707
8400200096,HSC,ALASKA HISTORICAL MUSEUM, ,HTTP://WWW.ALASKAMUSEUM.ORG,-149.85049,61.21785,1675 E 5TH AVE,ANCHORAGE,AK,99501
8400200097,HSC,COPPER VALLEY HISTORICAL SOCIETY,9078225285, ,-145.38294,61.92025,101 LOOP RD,COPPER CENTER,AK,99573
8400200099,HSC,CIRCLE DISTRICT HISTORICAL SOCIETY,9075201893,HTTP://WWW.CDHS.US,-145.14026,65.34556,PO BOX 30189,CENTRAL,AK,99730
8400200100,HSC,SITKA HISTORICAL SOCIETY, ,HTTP://WWW.SITKAHISTORY.ORG,-135.34093,57.04922,330 HARBOR DR,SITKA,AK,99835
8400200109,HSC,ALPINE HISTORICAL SOCIETY,9077457000, ,-148.38192,61.76392,PO BOX 266,SUTTON,AK,99674
8400200111,HSC,TOCHAK HISTORICAL SOCIETY,9075243016, ,-154.94429,62.91264,123 TAKOTNA AVENUE,MCGRATH,AK,99627
8400200112,HSC,MCCARTHY-KENNICOTT HISTORICAL MUSEUM,9072594550, ,-145.52846,62.1077,PO BOX MXY,GLENNALLEN,AK,99588
8400200113,HSC,TALKEETNA HISTORICAL SOCIETY,9077332487,HTTP://WWW.TALKEETNAHISTORICALSOCIETY.ORG,-149.90017,62.1755,TALKEETNA SPUR RD,TALKEETNA,AK,99676
8400200114,HSC,GASTINEAU CHANNEL HISTORICAL SOCIETY,9075865338, ,-134.39819,58.30836,1001 BASIN RD,JUNEAU,AK,99802
8400200119,HSC,PALMER HISTORICAL SOCIETY,9077451935,HTTP://WWW.PALMERHISTORICALSOCIETY.ORG,-149.11008,61.59873,316 EAST ELMWOOD AVENUE,PALMER,AK,99645
8400200120,HSC,SOLDOTNA HISTORICAL SOCIETY AND MUSEUM,9072623832,HTTP://WWW.ALASKA.ORG/DETAIL/SOLDOTNA-HISTORICAL-SOCIETY-MUSEUM,-151.0871,60.4771,461 CENTENNIAL PARK ROAD,SOLDOTNA,AK,99669
8400200121,HSC,ANCHORAGE HISTORIC PROPERTIES,9072743600, ,-149.89524,61.21978,645 WEST 3RD AVENUE,ANCHORAGE,AK,99501
8400200122,HSC,WHITESTONE FARMS,9078033075, ,-145.7709,64.10761,MILE 275 RICHARDSON HIGHWAY,DELTA JUNCTION,AK,99737
8400200131,HSC,ALASKA NATIONAL GUARD HISTORICAL HOLDING-MUSEUM, , ,-149.68711,61.25315,PO BPX 5800,FORT RICHARDSON,AK,99505
8400200132,HSC,ANCHORAGE GENEALOGICAL SOCIETY, ,HTTP://WWW.ANCHORAGEGENEALOGY.ORG/,-149.89178,61.18495,PO BOX 242294,ANCHORAGE,AK,99524
8400200134,HSC,CHUGIAK-EAGLE RIVER HISTORICAL SOCIETY,9076884706,HTTP://WWW.CERHS.ORG/,-149.47465,61.38967,18606 OLD GLENN HIGHWAY,CHUGIAK,AK,99567
8400200136,HSC,CHILKAT INDIAN VILLAGE,9077675505,HTTP://CHILKATINDIANVILLAGE.ORG,-135.47365,59.24675,32 CHILKAT AVE,KLUKWAN,AK,99827
8400200142,HSC,VALDEZ HISTORICAL PRESERVATION AND RESTORATION COMMITTEE, , ,-146.21652,61.10482,PO BOX 882,VALDEZ,AK,99686
8400200143,HSC,ALASKA EDUCATORS HISTORICAL SOCIETY,2142472478, ,-151.26597,60.5628,214 BIRCH ST,KENAI,AK,99611
8400200145,HSC,CAPE ST ELIAS LIGHTKEEPERS ASSOCIATION,9074245182, ,-147.99241,60.07439,PO BOX 1023,CORDOVA,AK,99574
8400200146,HSC,IDITAROD NATIONAL HISTORIC TRAIL,9072747165, ,-149.92363,61.19811,2323 HIALEAH DRIVE,ANCHORAGE,AK,99664
8400200151,HSC,KASILOF REGIONAL HISTORICAL ASSOCIATION,9072622999,HTTP://WWW.KASILOFHISTORICALSOCIETY.ORG/,-151.28922,60.33002,MILE 75 KALIFORNSKY BEACH ROAD,KASILOF,AK,99610
8400200152,HSC,ALUTIIQ HERITAGE ENDOWMENT,9075612668, ,-149.88518,61.18152,4300 B ST,ANCHORAGE,AK,99503
8400200157,HSC,KODIAK HISTORICAL SOCIETY,9074865920,HTTP://WWW.BARANOVMUSEUM.ORG/,-152.39915,57.7885,101 E MARINE WAY,KODIAK,AK,99615
8400200159,HSC,TONGASS HISTORICAL SOCIETY,9072255600, ,-131.64029,55.34242,629 DOCK ST,KETCHIKAN,AK,99901
8400200160,HSC,RESURRECTION BAY HISTORICAL SOCIETY, , ,-149.38716,60.20885,239 SIXTH AVENUE,SEWARD,AK,99664
8400200161,HSC,PIONEERS OF ALASKA,9074431907,HTTP://WWW.PIONEERSOFALASKA.ORG/,-165.41115,64.49805,IGLOO # # 1,NOME,AK,99762
8400200163,HSC,CORDOVA HISTORICAL SOCIETY,9074246665,HTTP://WWW.CORDOVAMUSEUM.ORG,-147.99241,60.07439,622 1ST ST,CORDOVA,AK,99574
8400200166,HSC,KAKE TRIBAL HERITAGE FOUNDATION,9077853165,HTTP://KAKETRIBALCORPORATION.COM/,-133.94876,56.97824,PO BOX 317,KAKE,AK,99830
8400200176,HSC,WRANGELL-ST. ELIAS NATIONAL PARK,9078227247, ,-145.38294,61.92025,1068 RICHARDSON HWY,COPPER CENTER,AK,99573
8400200177,HSC,DENALI NATIONAL PARK AND PRESERVE,9076839536, ,-150.90305,63.62586,PO BOX 212,DENALI PARK,AK,99755
8400200178,HSC,GATES OF THE ARCTIC NATIONAL PARK AND PRESERVE,9074550632, ,-147.83878,64.84911,4175 GEIST ROAD,FAIRBANKS,AK,99709
8400200179,HSC,YUKON-CHARLEY RIVERS NATIONAL PRESERVE,9074550632, ,-147.83878,64.84911,4175 GEIST ROAD,FAIRBANKS,AK,99709
8400200180,HSC,GLACIER BAY NATIONAL PARK & PRESERVE,9076972230, ,-136.97103,58.82437,PO BOX 140,GUSTAVUS,AK,99826
8400200181,HSC,KATMAI NATIONAL PARK AND PRESERVE,9072463305, ,-156.65631,58.70992,PO BOX 7,KING SALMON,AK,99613
8400200182,HSC,WESTERN ARCTIC NATIONAL PARKLANDS,9074423890, ,-162.59957,66.8985,PO BOX 1029,KOTZEBUE,AK,99752
8400200183,HSC,LAKE CLARK NATIONAL PARK AND PRESERVE,9077812218, ,-154.5406,60.36206,GENERAL DELIVERY,PORT ALSWORTH,AK,99653
8400200184,HSC,KENAI FJORDS NATIONAL PARK HEADQUARTERS,9074220500, ,-149.38716,60.20885,PO BOX 1727,SEWARD,AK,99664
8400200185,HSC,SITKA NATIONAL HISTORICAL PARK,9077470141, ,-135.31966,57.04892,106 METLAKATLA STREET,SITKA,AK,99835
8400200186,HSC,KLONDIKE GOLD RUSH NATIONAL HISTORICAL PARK,9079832921, ,-135.31356,59.45637,PO BOX 517,SKAGWAY,AK,99840
8400400004,HSC,YUMA TERRITORIAL PRISON STATE HISTORIC PARK,9287834771,HTTP://WWW.YUMAPRISON.ORG/,-114.626,32.68676,1 PRISON HILL RD,YUMA,AZ,85366
8400400005,HSC,VERDE HISTORICAL MUSEUM,9286342868,HTTP://WWW.CLEMENCEAUMUSEUM.COM/,-112.02742,34.73992,1 N WILLARD,COTTONWOOD,AZ,86326
8400400016,HSC,TOMBSTONE COURTHOUSE STATE HISTORIC PARK,5204573311,HTTP://TOMBSTONECOURTHOUSE.COM/,-110.04318,31.69404,223 E TOUGHNUT ST,TOMBSTONE,AZ,85638
8400400018,HSC,SHOW LOW HISTORICAL SOCIETY MUSEUM,9285327115,HTTP://WWW.SHOWLOWMUSEUM.COM/,-110.03623,34.25274,561 E DEUCE OF CLUBS,SHOW LOW,AZ,85902
8400400023,HSC,ROUTE 66 MUSEUM,9287539889, ,-114.05508,35.18888,PO BOX 66,KINGMAN,AZ,86402
8400400029,HSC,PINAL COUNTY HISTORICAL SOCIETY MUSEUM,5208684382,HTTP://WWW.PINALCOUNTYHISTORICALMUSEUM.ORG/,-111.40765,33.04836,715 S MAIN ST,FLORENCE,AZ,85132
8400400030,HSC,RIORDAN STATE HISTORIC PARK,9287794395,HTTP://AZSTATEPARKS.COM/PARKS/RIMA/,-111.66015,35.18998,409 WEST RIORDAN ROAD,FLAGSTAFF,AZ,86001
8400400038,HSC,MUHEIM HERITAGE HOUSE,5204327698,HTTP://WWW.BISBEEMUSEUM.ORG/BMMUHEIM.HTML,-109.90657,31.40365,207 YOUNGBLOOD AVE,BISBEE,AZ,85603
8400400044,HSC,MESA HISTORICAL MUSEUM,4808357658,HTTP://WWW.MESAHISTORICALMUSEUM.ORG/,-111.83136,33.41803,PO BOX 582,MESA,AZ,85211
8400400045,HSC,MCFARLAND HISTORICAL STATE PARK, ,HTTP://AZSTATEPARKS.COM/PARKS/MCFA/INDEX.HTML,-111.35848,33.01916,24 WEST RUGGLES,FLORENCE,AZ,85232
8400400052,HSC,JEROME STATE HISTORIC PARK,9286345381,HTTP://AZSTATEPARKS.COM/PARKS/JERO/INDEX.HTML,-112.11387,34.74987,100 DOUGLAS ROAD,JEROME,AZ,86331
8400400053,HSC,GILBERT HISTORICAL MUSEUM,4809261577,HTTP://WWW.GILBERTHISTORICALMUSEUM.ORG/,-111.78654,33.34933,PO BOX 1484,GILBERT,AZ,85299
8400400058,HSC,FORT VERDE STATE HISTORIC PARK,9285673275,HTTP://AZSTATEPARKS.COM/PARKS/FOVE/INDEX.HTML,-111.85105,34.56395,125 E HOLLAMON ST,CAMP VERDE,AZ,86322
8400400061,HSC,RIVER OF TIME MUSEUM,4808372612,HTTP://WWW.RIVEROFTIMEMUSEUM.ORG,-111.72147,33.60509,12901 N LA MONTANA DR,FOUNTAIN HILLS,AZ,85268
8400400074,HSC,CHANDLER HISTORICAL MUSEUM,4807822717,HTTP://WWW.CHANDLERMUSEUM.ORG,-111.83867,33.30463,PO BOX 926,CHANDLER,AZ,85244
8400400076,HSC,COCHISE COUNTY HISTORICAL SOCIETY,5203645226,HTTP://WWW.COCHISECOUNTYHISTORY.ORG/,-109.55036,31.35079,PO BOX 818,DOUGLAS,AZ,85608
8400400082,HSC,BISBEE MINING & HISTORICAL MUSEUM,6024327071,HTTP://WWW.BISBEEMUSEUM.ORG/,-109.90657,31.40365,PO BOX 14,BISBEE,AZ,85603
8400400084,HSC,ARIZONA HISTORICAL SOCIETY,9287746272,HTTP://WWW.ARIZONAHISTORICALSOCIETY.ORG,-111.65579,35.22355,2340 N FT VALLEY ROAD,FLAGSTAFF,AZ,86001
8400400086,HSC,ARIZONA HISTORICAL SOCIETY MUSEUM AT PAPAGO PARK, , ,-111.93528,33.45059,1300 N COLLEGE AVENUE,TEMPE,AZ,85281
8400400095,HSC,ARIZONA HISTORICAL SOCIETY SOUTHERN DIVISION,4809290292,HTTP://WWW.ARIZONAHISTORICALSOCIETY.ORG,-110.95736,32.23308,949 E 2ND ST,TUCSON,AZ,85719
8400400097,HSC,ARIZONA HISTORICAL SOCIETY RIO COLORADO DIVISION,9287821841,HTTP://WWW.ARIZONAHISTORICALSOCIETY.ORG,-114.61968,32.72335,240 S MADISON,YUMA,AZ,85364
8400400105,HSC,NOVA ROMA, , ,-111.97811,33.46134,1241 N 48TH ST APT 110,PHOENIX,AZ,85008
8400400106,HSC,LITCHFIELD PARK SCOUT LODGE PRESERVATION, , ,-112.35845,33.50319,610 N OLD LITCHFIELD RD,LITCHFIELD P,AZ,85340
8400400108,HSC,PRIDE SOCIETY,9283592583,HTTP://WWW.DUNCANPRIDESOCIETY.ORG/,-109.1579,32.83536,20 CROTTS LN,DUNCAN,AZ,85534
8400400110,HSC,ANZA SOCIETY, ,HTTP://WWW.ANZASOCIETY.ORG/,-110.95903,32.42622,12112 RANCHO VISTOSO BLVD SUITE 150 PMB 146,ORO VALLEY,AZ,85755
8400400114,HSC,CLARKDALE HISTORICAL SOCIETY AND MUSEUM,9286491198, ,-112.05514,34.75492,900 N 1ST ST,CLARKDALE,AZ,86324
8400400117,HSC,TUCSON CHINESE HISTORICAL SOCIETY, , ,-110.97095,32.22093,10 E BROADWAY BLVD,TUCSON,AZ,85701
8400400126,HSC,MCFARLAND HISTORICAL STATE PARK, , ,-111.87981,33.34545,2149 W CHEYENNE DR,CHANDLER,AZ,85224
8400400134,HSC,VAIL PRESERVATION SOCIETY,5202473838,HTTP://VAILPRESERVATIONSOCIETY.ORG/,-110.71569,32.00882,PO BOX 982,VAIL,AZ,85641
8400400137,HSC,NAVAJO COUNTY HISTORICAL SOCIETY, , ,-110.15154,34.91205,E ARIZONA ST COURT HOUSE,HOLBROOK,AZ,86025
8400400138,HSC,CASA GRANDE VALLEY HISTORICAL SOCIETY,5208362223, ,-111.75394,32.87963,110 W FLORENCE BLVD,CASA GRANDE,AZ,85122
8400400140,HSC,MESA HISTORICAL AND ARCHEOLOGICAL SOCIETY,4808352286,HTTP://WWW.MESAHISTORICALMUSEUM.ORG,-111.82988,33.41478,51 EAST MAIN STREET,MESA,AZ,85211
8400400141,HSC,TUBAC HISTORICAL SOCIETY,5203982020,HTTP://THS-TUBAC.ORG/,-111.04793,31.61326,5 PLACITA DE ANZA,TUBAC,AZ,85646
8400400146,HSC,TRUE WEST PRESERVATION SOCIETY, , ,-111.96545,33.78507,6702 EAST CAVE CREEK ROA,CAVE CREEK,AZ,85331
8400400151,HSC,JEFFERSON PARK, ,HTTP://JEFFERSONPARK.INFO/,-110.94024,32.23545,PO BOX 41243,TUCSON,AZ,85717
8400400156,HSC,NATURAL HISTORY NETWORK, , ,-68.25552,44.3969,PO BOX 533,BAR HARBOR,ME,4609
8400400161,HSC,MARANA HERITAGE CONSERVANCY,5205725601,HTTP://WWW.MARANAHERITAGE.ORG/,-111.21143,32.44827,11555 W CIVIC CENTER DR,MARANA,AZ,85653
8400400162,HSC,VETERANS HERITAGE PROJECT, ,HTTP://VETERANSHERITAGE.ORG/,-111.92276,33.82411,PO BOX 1297,CAREFREE,AZ,85377
8400400163,HSC,SOUTHWEST CIVIL WAR ASSOCIATION, ,HTTP://WWW.SWCWA.COM/,-112.20974,33.74653,28987 N 70TH DR,PEORIA,AZ,85383
8400400164,HSC,SURPRISE HISTORICAL SOCIETY, ,HTTP://WWW.SURPRISEAZHISTORICALSOCIETY.ORG,-112.40087,33.66491,20004 N WINDOW ROCK DRIVE,SURPRISE,AZ,85374
8400400166,HSC,NACO HERITAGE ALLIANCE, , ,-110.28595,31.53243,1359 KATHERINE DR,SIERRA VISTA,AZ,85635
8400400168,HSC,TUCSONS BIRTHPLACE,5207779270,HTTP://WWW.TUCSONSBIRTHPLACE.ORG/,-110.9685,32.22064,PO BOX 1228,TUCSON,AZ,85702
8400400169,HSC,SONORAN DESERT NATIONAL MONUMENT,6025700658,HTTP://WWW.SONORANDESERTFRIENDS.ORG/,-112.0739,33.45377,PO BOX 13252,PHOENIX,AZ,85050
8400400170,HSC,MAMMOTH HISTORICAL SOCIETY, ,HTTPS://MAMMOTHHISTORY.WORDPRESS.COM/,-110.64582,32.70968,PO BOX 748,MAMMOTH,AZ,85618
8400400171,HSC,CASA GRANDE RUINS, , ,-111.22852,32.50189,32068 E GRAND VALLEY DR,MARANA,AZ,85658
8400400174,HSC,MARICOPA HISTORICAL SOCIETY, ,HTTP://WWW.MHS50.COM/,-112.01212,33.06297,41600 W SMITH-ENKE ROAD,MARICOPA,AZ,85139
8400400178,HSC,TOVREA CARRARO SOCIETY,6022563321,HTTP://WWW.TOVREACASTLETOURS.COM/,-111.9752,33.45095,5025 E VAN BUREN STREEY,PHOENIX,AZ,85082
8400400179,HSC,WICKENBURG HISTORICAL PRESERVATION SOCIETY,9286845603,HTTP://WWW.WICKENBURGHISTORY.COM/,-112.74688,33.96313,PO BOX 1341,WICKENBURG,AZ,85358
8400400180,HSC,UNITED STATES COAST GUARD LIGHTSHIP SAILORS ASSOCIATION, , ,-72.28939,42.15495,7 RIDGE RD,PALMER,MA,1069
8400400183,HSC,OLD PEARCE PRESERVATION ASSOCIATION,5208264756, ,-109.69889,31.90385,PO BOX 776,PEARCE,AZ,85625
8400400184,HSC,B-26 MARAUDER HISTORICAL SOCIETY, , ,-110.90675,32.21547,3900 E TIMROD ST,TUCSON,AZ,85711
8400400190,HSC,RUBY MINES RESTORATION PROJECT, ,HTTP://WWW.RUBYMINERESTORATION.ORG/,-111.11443,32.38486,PO BOX 1890,CORTARO,AZ,85652
8400400191,HSC,OVI MOHAWK ASSOCIATION, , ,-111.04977,31.75215,3100 ELEPHANT HEAD RD,GREEN VALLEY,AZ,85622
8400400192,HSC,SAN MANUEL HISTORICAL SOCIETY,5203854360, ,-110.63582,32.60531,PO BOX 742,SAN MANUEL,AZ,85631
8400400193,HSC,CROWN KING HISTORICAL SOCIETY, ,HTTP://WWW.CROWNKINGHISTORICALSOCIETY.ORG/,-112.30557,34.21902,PO BOX 254,CROWN KING,AZ,86343
8400400194,HSC,ARIZONA COWBOY SYMPOSIUM ASSOCIATION, , ,-111.02985,32.27082,3505 N CAMINO DE VISTA,TUCSON,AZ,85745
8400400196,HSC,KINGMAN VETERANS MEMORIAL TRUST, ,HTTP://WWW.GOKINGMAN.COM/EVENT-MEMORIAL-DAY-PROGRAM-2014,-114.0314,35.20466,1901 MAIN ST,KINGMAN,AZ,86401
8400400197,HSC,CHINO VALLEY HISTORICAL SOCIETY,9286361622,HTTP://WWW.CVAZHS.ORG/,-112.48538,34.76301,PO BOX 4154,CHINO VALLEY,AZ,86323
8400400202,HSC,PIMA COUNTY GENEALOGY SOCIETY, , ,-110.88393,32.22463,PO BOX 16421,TUCSON,AZ,85732
8400400205,HSC,INDIAN RIDGE HISTORIC DISTRICT,7738811675, ,-110.84318,32.25285,2520 N INDIAN RIDGE DR,TUCSON,AZ,85715
8400400207,HSC,ARIZONA COUNCIL FOR HISTORY EDUCATION, ,HTTP://WWW.AZHISTORYCOUNCIL.ORG/,-111.943,33.43681,PO BOX 742,TEMPE,AZ,85280
8400400211,HSC,BOUSE GENEALOGICAL SOCIETY, ,HTTP://BOUSEGENIES.WEEBLY.COM/,-114.0046,33.93334,PO BOX 624,BOUSE,AZ,85325
8400400214,HSC,AMERICAN AVIATION HISTORICAL SOCIETY PHOENIX WING, , ,-111.87388,33.36615,1858 W NAVARRO AVE,MESA,AZ,85202
8400400215,HSC,SAN PEDRO VALLEY ARTS AND HISTORICAL SOCIETY,5205863070,HTTP://MYEVENT.COM/CONTENT.PHP?CONTENTID=PAGE_NOT_FOUND,-110.29461,31.9677,180 S SAN PEDRO ST,BENSON,AZ,85602
8400400217,HSC,SULPHUR SPRINGS VALLEY HISTORICAL SOCIETY, ,HTTP://SSVHS.WEEBLY.COM,-109.83221,32.25253,127 E MALEY ST,WILLCOX,AZ,85643
8400400219,HSC,AJO HISTORICAL SOCIETY,5203877105,HTTP://AJOMUSEUM.ORG/,-112.8721,32.36256,160 S MISSION RD,AJO,AZ,85321
8400400220,HSC,SAWTOOTH MOUNTAINS HISTORICAL SOCIETY,2087275000,HTTP://DISCOVERSAWTOOTH.ORG/,-114.41819,43.78221,5 NORTH FORK CANYON RD,KETCHUM,ID,85223
8400400222,HSC,BUFFALO SOLDIERS OF THE ARIZONA TERRITORY,4804155439,HTTP://WWW.BUFFALOSOLDIERSAZTRTY.SMUGMUG.COM/,-111.72085,33.45864,PO BOX 20883,MESA,AZ,85277
8400400224,HSC,WARWICKSHIRE COUNTY,6026190628,HTTP://WWW.WARWICKSHIREUS.ORG/,-111.92584,33.30207,4837 W MERCURY WAY,CHANDLER,AZ,85226
8400400227,HSC,THREE RIVERS HISTORICAL SOCIETY,6233861397,HTTP://WWW.THREERIVERSHISTORICALSOCIETYAZ.ORG/,-112.41477,33.41119,PO BOX 7251,GOODYEAR,AZ,85338
8400400228,HSC,BLACK CANYON HISTORICAL SOCIETY,6233740332, ,-112.1387,34.07475,18800 E SCHOOL HOUSE RD,BLACK CANYON CITY,AZ,85324
8400400229,HSC,ORO VALLEY HISTORICAL SOCIETY, ,HTTP://WWW.OVHISTORY.ORG/,-110.97856,32.4043,PO BOX 69754,ORO VALLEY,AZ,85737
8400400243,HSC,SUN CITIES AREA HISTORICAL SOCIETY,6239742568,HTTP://WWW.DELWEBBSUNCITIESMUSEUM.ORG,-112.2931,33.60091,10801 W OAKMONT DR,SUN CITY,AZ,85351
8400400245,HSC,ARIZONA NATIONAL GUARD HISTORICAL SOCIETY,6022532378, ,-112.14539,32.96342,9014 N WEALTH RD,MARICOPA,AZ,85139
8400400249,HSC,SUNNYSLOPE HISTORICAL SOCIETY,6023313150,HTTP://WWW.SUNNYSLOPEHISTORICALSOCIETY.ORG,-112.0631,33.57112,737 E HATCHER RD,PHOENIX,AZ,85020
8400400256,HSC,PRESCOTT CORRAL OF WESTERNERS INTERNATIONAL,9287771879,HTTP://WWW.PRESCOTTCORRAL.ORG/,-112.47815,34.5485,PO BOX 11086,PRESCOTT,AZ,86304
8400400258,HSC,CHIRICAHUA PELONCILLO HISTORICAL SOCIETY,5205580369, ,-109.13267,31.97948,PO BOX 16530,PORTAL,AZ,85632
8400400259,HSC,CORNVILLE HISTORICAL SOCIETY,9286491916,HTTP://CORNVILLE-HISTORICAL-SOCIETY.ORG/,-111.9241,34.72331,PO BOX 1200,CORNVILLE,AZ,86325
8400400270,HSC,SHARLOT HALL HISTORICAL SOCIETY OF ARIZONA,9284453122,HTTPS://WWW.SHARLOT.ORG/,-112.46419,34.54155,415 W GURLEY ST,PRESCOTT,AZ,86301
8400400274,HSC,JEROME HISTORICAL SOCIETY,9286341066,HTTP://JEROMEHISTORICALSOCIETY.COM/,-112.11387,34.74987,407 CLARK STREET,JEROME,AZ,86331
8400400275,HSC,MOHAVE COUNTY HISTORICAL SOCIETY, ,HTTP://WWW.MOHAVEMUSEUM.ORG,-114.0623,35.19034,400 W BEALE ST,KINGMAN,AZ,86401
8400400279,HSC,CAMP VERDE HISTORICAL SOCIETY,9285679560,HTTP://WWW.CAMPVERDE.AZ.GOV/COMMUNITY/VISION-STATEMENT-2/HISTORICAL-SOCIETY-2/,-111.85311,34.56227,435 S MAIN ST,CAMP VERDE,AZ,86322
8400400281,HSC,NORTHERN ARIZONA PIONEERS HISTORICAL SOCIETY,9287746272,HTTP://WWW.ARIZONAHISTORICALSOCIETY.ORG,-111.65579,35.22355,2340 N FORT VALLEY RD,FLAGSTAFF,AZ,86001
8400400284,HSC,FRANK LLOYD WRIGHT FOUNDATION,4806275372,HTTP://WWW.FRANKLLOYDWRIGHT.ORG,-111.89292,33.55318,PO BOX 4430,SCOTTSDALE,AZ,85261
8400400285,HSC,MARICOPA COUNTY HISTORICAL SOCIETY,9286842272,HTTP://WESTERNMUSEUM.ORG/,-112.73092,33.96856,21 N FRONTIER ST,WICKENBURG,AZ,85390
8400400286,HSC,PIMERIA ALTA HISTORICAL SOCIETY,5202874621,HTTP://WWW.PIMERIAALTAMUSEUM.COM,-110.94126,31.33467,136 N GRAND AVE,NOGALES,AZ,85621
8400400287,HSC,YUMA COUNTY HISTORICAL SOCIETY,9287821841,HTTP://WWW.ARIZONAHISTORICALSOCIETY.ORG,-114.61968,32.72335,240 S MADISON AVE,YUMA,AZ,85364
8400400289,HSC,TEMPE HISTORICAL SOCIETY,4809290292, ,-111.93528,33.45059,1300 N COLLEGE AVE,TEMPE,AZ,85282
8400400291,HSC,GREENLEE COUNTY HISTORICAL SOCIETY,9288653115, ,-109.24553,33.0113,PO BOX 787,CLIFTON,AZ,85533
8400400292,HSC,NORTHERN GILA COUNTY HISTORICAL SOCIETY,9284743483,HTTP://RIMCOUNTRYMUSEUMS.COM/,-111.27972,34.25825,700 S GREEN VALLEY PARKWAY,PAYSON,AZ,85547
8400400294,HSC,HUACHUCA MUSEUM SOCIETY,5205334946,HTTP://HUACHUCAMUSEUM.COM/,-110.27246,31.55454,41401 GRIERSON AVENUE,FORT HUACHUCA,AZ,85636
8400400295,HSC,ORACLE HISTORICAL SOCIETY,5208969609,HTTP://WWW.ORACLEHISTORICALSOCIETY.ORG,-110.80749,32.60697,PO BOX 10,ORACLE,AZ,85623
8400400296,HSC,WHITE MOUNTAIN HISTORICAL SOCIETY,9283332123,HTTP://WWW.SPRINGERVILLE-EAGARCHAMBER.COM/,-109.27754,34.12912,418 W MAIN STREET,SPRINGERVILLE,AZ,85938
8400400299,HSC,EASTERN ARIZONA MUSEUM & HISTORICAL SOCIETY,9284859400,HTTP://WWW.EASTERNARIZONAMUSEUM.COM,-109.84893,32.89468,2 NORTH MAIN STREET,PIMA,AZ,85543
8400400301,HSC,GILBERT HISTORICAL SOCIETY,4809261577,HTTP://WWW.GILBERTHISTORICALMUSEUM.ORG/,-111.78966,33.34945,10 S GILBERT ROAD,GILBERT,AZ,85299
8400400306,HSC,ARIZONA JEWISH HISTORICAL SOCIETY,6022417870, ,-112.07235,33.46285,122 E CULVER ST,PHOENIX,AZ,85004
8400400308,HSC,EIGHT AIR FORCE HISTORICAL SOCIETY ARIZONA, , ,-112.29112,33.59087,10740 W CANTERBURY DR,SUN CITY,AZ,85351
8400400312,HSC,MARICOPA LIVE STEAMERS RAILROAD HERITAGE PRESERVATION SOCIETY, ,HTTP://WWW.MARICOPALIVESTEAMERS.COM/,-112.05657,33.64216,17017 N 12TH ST APT 1045,PHOENIX,AZ,85022
8400400313,HSC,COLORADO RIVER HISTORICAL SOCIETY,9287543399,HTTP://WWW.CRHSMUSEUM.COM,-114.56741,35.15327,2201 HIGHWAY 68 P O BOX 1599,BULLHEAD CITY,AZ,86430
8400400316,HSC,GENEALOGICAL SOCIETY OF YUMA ARIZONA, , ,-114.626,32.68676,PO BOX 7025,YUMA,AZ,85366
8400400318,HSC,PARKER AREA HISTORICAL SOCIETY,9286698077,HTTP://CIP.AZLIBRARY.GOV/INSTITUTION.ASPX?INSID=40,-114.28754,34.14757,1214 S CALIFORNIA AVENUE,PARKER,AZ,85344
8400400319,HSC,SEDONA HISTORICAL SOCIETY,9282827038, ,-111.76115,34.87888,735 JORDAN RD,SEDONA,AZ,86339
8400400326,HSC,OUTHOUSE FAMILY HISTORICAL SOCIETY, , ,-111.89818,33.52378,8485 E MCDONALD,SCOTTSDALE,AZ,85250
8400400328,HSC,SUPERIOR HISTORICAL SOCIETY,7153928449,HTTP://DOUGLASHISTORY.ORG/,-111.10267,33.28835,1101 JOHN AVENUE,SUPERIOR,AZ,85173
8400400329,HSC,LAKE HAVASU GENEALOGICAL SOCIETY,9288545447,HTTP://LHGS.WEEBLY.COM/,-114.32857,34.47542,2126 MCCULLOCH BLVD N,LAKE HAVASU CITY,AZ,86405
8400400331,HSC,CARTWRIGHT HERITAGE HOUSE MUSEUM, , ,-112.29433,33.61362,10936 W TROPICANA CIR,SUN CITY,AZ,85351
8400400333,HSC,APACHE COUNTY HISTORICAL SOCIETY,9283374737,HTTP://ACHISTORICALSOCIETY.WIX.COM:80/ACHS,-109.37764,34.5065,180 WEST CLEVELAND P O BOX 146,ST JOHNS,AZ,85936
8400400337,HSC,GRAND CANYON HISTORICAL SOCIETY, ,HTTP://WWW.GRANDCANYONHISTORY.ORG,-111.61224,35.20847,PO BOX 31405,FLAGSTAFF,AZ,86002
8400400340,HSC,CENTER FOR DESERT ARCHAEOLOGY,5208826946,HTTP://WWW.ARCHAEOLOGYSOUTHWEST.ORG,-110.97215,32.226,300 N ASH ALY,TUCSON,AZ,85701
8400400343,HSC,COOLIDGE HISTORICAL SOCIETY,5207237186, ,-111.51671,32.97444,161 W HARDING AVE,COOLIDGE,AZ,85128
8400400344,HSC,SAN TAN HISTORICAL SOCIETY,4809879380, ,-111.6345,33.26267,20425 S OLD ELLSWORTH RD,QUEEN CREEK,AZ,85142
8400400345,HSC,PRESCOTT CREEKS PRESERVATION ASSOCIATION,9284455669,HTTP://WWW.PRESCOTTCREEKS.ORG/,-112.46875,34.53985,PO BOX 3004,PRESCOTT,AZ,86302
8400400347,HSC,HUBBELL TRADING POST NATIONAL HISTORIC SITE,5207553475,HTTP://WWW.FRIENDSOFHUBBELL.ORG/,-112.01987,33.62623,PO BOX 54295,PHOENIX,AZ,85078
8400400351,HSC,PEORIA ARIZONA HISTORICAL SOCIETY,6234878030, ,-112.23768,33.57891,10304 NORTH 83RD AVENUE,PEORIA,AZ,85380
8400400356,HSC,SELIGMAN HISTORICAL SOCIETY, , ,-112.87744,35.32767,PO BOX 51,SELIGMAN,AZ,86337
8400400357,HSC,TUCSON PRESIDIO,5208378119,HTTP://TUCSONPRESIDIO.COM,-110.9685,32.22064,PO BOX 1334,TUCSON,AZ,85702
8400400359,HSC,SKULL VALLEY HISTORICAL SOCIETY,9284423645,HTTP://WWW.SKULLVALLEY.ORG/,-112.71074,34.55463,PO BOX 232,SKULL VALLEY,AZ,86338
8400400360,HSC,NAVAJO COUNTY GENEALOGICAL SOCIETY, , ,-110.74203,35.04617,3614 SUNRISE ST,WINSLOW,AZ,86047
8400400361,HSC,YUMA NATURAL HISTORY SOCIETY,9288190517, ,-114.6445,32.72051,317 S 20TH AVE,YUMA,AZ,85364
8400400362,HSC,SHOW LOW HISTORICAL SOCIETY,9285327115,HTTP://WWW.SHOWLOWMUSEUM.COM,-110.03623,34.25274,561 EAST DEUCE OF CLUBS,SHOW LOW,AZ,85902
8400400365,HSC,GREEN VALLEY GENEALOGICAL SOCIETY, , ,-110.99003,31.93593,17699 S CAMINO DE LAS QUINTAS,SAHUARITA,AZ,85622
8400400366,HSC,ARIZONA GENEALOGICAL ADVISORY BOARD, ,HTTP://WWW.AZGAB.ORG/,-111.83136,33.41803,PO BOX 5641,MESA,AZ,85211
8400400369,HSC,ANZA TRAIL COALITION ARIZONA,5202818426,HTTP://WWW.ANZATRAIL.ORG/,-111.04793,31.61326,PO BOX 4711,TUBAC,AZ,85646
8400400379,HSC,HISTORIC SAHUARO RANCH,6239302820, ,-112.19062,33.57645,9802 NORTH 59TH AVENUE,GLENDALE,AZ,85311
8400400381,HSC,AGUA CALIENTE,5207493718,HTTP://WWW.FRIENDSOFAGUACALIENTE.ORG/,-110.72825,32.27952,12325 E ROGER ROAD,TUCSON,AZ,85751
8400400384,HSC,PEEPLES VALLEY-YARNELL HISTORICAL SOCIETY,9284270262,HTTP://WWW.PEEPLESVALLEYYARNELLHISTORICALSOCIETY.COM/,-112.73654,34.24373,18205 ARIZONA 8,PEEPLES VALLEY,AZ,85362
8400400385,HSC,JEWISH HISTORY MUSEUM,5206709073,HTTP://WWW.JEWISHHISTORYMUSEUM.ORG/,-110.9705,32.21418,564 S STONE AVE,TUCSON,AZ,85702
8400400387,HSC,WESTERN PHOTOGRAPHIC HISTORICAL SOCIETY, ,HTTP://WWW.WPHSOCIETY.ORG/,-110.88393,32.22463,PO BOX 14616,TUCSON,AZ,85732
8400400392,HSC,CORONADO NATIONAL FOREST HERITAGE SOCIETY, ,HTTP://WWW.KENTUCKYCAMP.ORG/,-110.90206,32.20911,4259 E PASEO GRANDE,TUCSON,AZ,85711
8400400396,HSC,OATMAN TAILINGS OF TIME HISTORICAL SOCIETY, , ,-114.38458,35.02707,PO BOX 945,OATMAN,AZ,86433
8400400397,HSC,KINGMAN ARMY AIR FIELD HISTORICAL SOCIETY,9287571892, ,-113.78626,35.21233,4540 FLIGHTLINE DR,KINGMAN,AZ,86401
8400400398,HSC,HISTORICAL MEDIEVAL RE-CREATIONS, , ,-111.93551,33.39195,PO BOX 26362,TEMPE,AZ,85285
8400400399,HSC,GERONIMO MONUMENT,5203644132, ,-109.06181,31.80007,9010 E SHANNON BLVD,PORTAL,AZ,85632
8400400402,HSC,PRESCOTT VALLEY HISTORICAL SOCIETY OF ARIZONA,9287595524,HTTP://WWW.PVAZHISTORICALSOCIETY.ORG/HOME.ASPX,-112.33248,34.59645,7501 E CIVIC CIR,PRESCOTT VLY,AZ,86314
8400400411,HSC,LAKE HAVASU CITY HISTORICAL SOCIETY,9288544938,HTTP://WWW.HAVASUMUSEUM.COM,-114.35119,34.48002,320 LONDON BRIDGE RD,LK HAVASU CT,AZ,86403
8400400412,HSC,PIONEER AUTO TRAILS HISTORICAL SOCIETY PATHS, , ,-110.04318,31.69404,PO BOX 513,TOMBSTONE,AZ,85638
8400400414,HSC,WINSLOW HISTORICAL SOCIETY,9282895861,HTTP://WWW.OLDTRAILSMUSEUM.ORG,-110.6977,35.02371,212 KINSLEY AVE,WINSLOW,AZ,86047
8400400416,HSC,CATTLE TRACK ARTS AND PRESERVATION,4806073658, ,-111.91725,33.52583,6105 N CATTLE TRACK RD,SCOTTSDALE,AZ,85250
8400400418,HSC,SOUTHWEST GERMAN SOCIETY,4808372825, ,-111.73405,33.60997,16033 E PRIMROSE DR,FOUNTAIN HILL,AZ,85268
8400400422,HSC,KINGMAN AIRSHOW, , ,-114.03429,35.20594,2101 STOCKTON HILL RD,KINGMAN,AZ,86401
8400400428,HSC,GRAHAM COUNTY HISTORICAL SOCIETY,9283480470, ,-109.75713,32.8492,3430 W MAIN STREET,THATCHER,AZ,85552
8400400430,HSC,PINETOP LAKESIDE HISTORICAL SOCIETY,9283688123,HTTP://WWW.PINETOPLAKESIDEHISTORY.COM/,-109.97683,34.15297,1360 N NIELS HANSEN LN,LAKESIDE,AZ,85929
8400400437,HSC,PLEASANT VALLEY HISTORICAL SOCIETY,9284623661, ,-111.16961,34.08926,PO BOX 53,YOUNG,AZ,85554
8400400439,HSC,LITCHFIELD PARK HISTORICAL SOCIETY,6235354414,HTTP://LITCHFIELDPARKHISTORICALSOCIETY.ORG,-112.39282,33.50828,13912 WEST CAMELBACK ROAD,LITCHFIELD PARK,AZ,85340
8400400446,HSC,ARIZONA ARCHAEOLOGICAL AND HISTORICAL SOCIETY,5206216438,HTTP://WWW.AZ-ARCH-AND-HIST.ORG/,-110.95667,32.23796,ARIZONA STATE MUSEUM UNI,TUCSON,AZ,85721
8400400449,HSC,PINAL COUNTY HISTORICAL SOCIETY,5208684382,HTTP://WWW.PINALCOUNTYHISTORICALMUSEUM.ORG/,-111.40765,33.04836,715 SOUTH MAIN STREET,FLORENCE,AZ,85132
8400400455,HSC,SCOTTSDALE HISTORICAL SOCIETY,4809454499, ,-111.92631,33.46706,PO BOX 143,SCOTTSDALE,AZ,85252
8400400457,HSC,PINE-STRAWBERRY ARCHEOLOGICAL AND HISTORICAL SOCIETY,9284763547,HTTP://WWW.PINESTRAWHS.ORG/,-111.4547,34.38606,3886 ARIZONA 87,PINE,AZ,85544
8400400459,HSC,SUPERSTITION MOUNTAIN HISTORICAL SOCIETY,4809834888,HTTP://WWW.SUPERSTITIONMOUNTAINMUSEUM.ORG/,-111.54773,33.42223,4087 NORTH APACHE TRAIL,APACHE JCT,AZ,85117
8400400462,HSC,GLENDALE ARIZONA HISTORICAL SOCIETY,7179355574,HTTP://WWW.GLENDALEARIZONAHISTORICALSOCIETY.ORG/,-112.19062,33.57645,9802 N 59TH AVE,GLENDALE,AZ,85312
8400400465,HSC,GILA COUNTY HISTORICAL SOCIETY,9284257385,HTTP://WWW.GILAHISTORICAL.COM/,-110.79332,33.40766,1330 N BROAD STREET,GLOBE,AZ,85502
8400400470,HSC,ORGAN PIPE CACTUS NATIONAL MONUMENT,5203876849, ,-112.74107,32.26964,10 ORGAN PIPE DRIVE,AJO,AZ,85321
8400400471,HSC,FORT BOWIE NATIONAL HISTORIC SITE,5208472500, ,-109.33511,32.16335,PO BOX 158,BOWIE,AZ,85605
8400400472,HSC,MONTEZUMA CASTLE NATIONAL MONUMENT,5205673322, ,-111.88198,34.57509,PO BOX 219,CAMP VERDE,AZ,86322
8400400473,HSC,TUZIGOOT NATIONAL MONUMENT,9286435564, ,-111.85125,34.56141,PO 219,CAMP VERDE,AZ,86322
8400400474,HSC,CANYON DE CHELLY NATIONAL MONUMENT,9286745500, ,-109.58199,36.15954,PO BOX 588,CHINLE,AZ,86503
8400400475,HSC,CASA GRANDE RUINS NATIONAL MONUMENT,5207233172, ,-111.53631,32.99512,1100 RUINS DRIVE,COOLIDGE,AZ,85128
8400400476,HSC,FLAGSTAFF AREA NATIONAL MONUMENTS - SUNSET CRATER NM WALNUT CANYON NM WUPATKI NM,9285270322, ,-111.57322,35.23741,6400 N HIGHWAY 89,FLAGSTAFF,AZ,86004
8400400477,HSC,PIPE SPRING NATIONAL MONUMENT,9286437105, ,-112.75448,36.90357,406 N PIPE SPRINGS RD,FREDONIA,AZ,86022
8400400478,HSC,HUBBELL TRADING POST (NHS),9287553475, ,-109.56829,35.71775,HUBBELL TRADING POST NHS,GANADO,AZ,86505
8400400480,HSC,CORONADO NATIONAL MEMORIAL, , ,-110.25381,31.34588,4101 E MONTEZUMA CANYON RD,HEREFORD,AZ,85615
8400400481,HSC,GLEN CANYON NATIONAL RECREATION AREA,9286086280, ,-111.46716,36.91375,PO BOX 1507,PAGE,AZ,86040
8400400483,HSC,TONTO NATIONAL MONUMENT,9284672241, ,-111.00047,33.61548,26260 N AZ HWY 188 LOT 2,ROOSEVELT,AZ,85545
8400400484,HSC,NAVAJO NATIONAL MONUMENT,9286722700, ,-110.8766,35.96641,HC 71 BOX 3,TONALEA,AZ,86044
8400400486,HSC,WESTERN ARCHEOLOGICAL AND CONSERVATION CENTER,5207916400, ,-110.98387,32.22472,255 N COMMERCE PARK LOOP,TUCSON,AZ,85745
8400400487,HSC,TUMACACORI NATIONAL HISTORICAL PARK,5203982341, ,-111.05288,31.58293,PO BOX 67,TUMACACORI,AZ,85640
8400400488,HSC,CHIRICAHUA NATIONAL MONUMENT,5208243560, ,-109.70011,32.07086,13063 E BONITA CANYON ROAD,WILLCOX,AZ,85643
8400500025,HSC,GRAVETTE HISTORICAL MUSEUM,4797877334,HTTP://WWW.CITYOFGRAVETTE-AR.GOV/,-94.448,36.41928,503 CHARLOTTE ST SE,GRAVETTE,AR,72736
8400500042,HSC,BAUXITE HISTORICAL ASSN MUSEUM,5015579858, ,-92.46903,34.52672,PO BOX 245,BAUXITE,AR,72011
8400500045,HSC,ARKANSAS TERRITORIAL RESTORATION, , ,-92.26945,34.74606,200 E 3RD ST,LITTLE ROCK,AR,72201
8400500050,HSC,MANESS HISTORICAL SOCIETY, , ,-94.31039,35.33292,1302 FORT ST,BARLING,AR,72923
8400500051,HSC,CANE HILL RESTORATION ASSOCIATION, , ,-94.41309,35.86701,18781 MOCKINGBIRD LN,CANEHILL,AR,72717
8400500055,HSC,MARION COUNTY ARKANSAS HERITAGE SOCIETY,8704452667, ,-92.69523,36.24265,PO BOX 761,YELLVILLE,AR,72687
8400500056,HSC,GRAPEVINE HISTORICAL SOCIETY, , ,-92.40065,34.76672,11412 HURON LN,LITTLE ROCK,AR,72211
8400500060,HSC,BENTONVILLE HISTORICAL MUSEUM, , ,-94.22469,36.38772,1307 NW K STREET,BENTONVILLE,AR,72712
8400500061,HSC,DERMOTT HISTORICAL MUSEUM,8705383496, ,-91.4346,33.52779,215 EAST IOWA,DERMOTT,AR,71638
8400500067,HSC,FIVE RIVERS HISTORIC PRESERVATION, , ,-90.96728,36.26456,210 MCDONALD ST,POCAHONTAS,AR,72455
8400500068,HSC,WASHINGTON COUNTY ARKANSAS GENEALOGICAL SOCIETY,4798567000,HTTP://WCAGS.ORG/,-94.16435,36.06189,401 W MOUNTAIN ST,FAYETTEVILLE,AR,72702
8400500071,HSC,PARIS COALMINERS MEMORIAL AND MINI MINE,4799632244,HTTP://WWW.PARISARKANSAS.INFO/,-93.73008,35.28631,804 S ELM ST,PARIS,AR,72855
8400500075,HSC,QUAPAW QUARTER ASSOCIATION OF VILLA MARRE,5013710075,HTTP://WWW.QUAPAW.COM/,-92.26424,34.74294,615 EAST CAPITOL AVENUE,LITTLE ROCK,AR,72216
8400500077,HSC,SOUTH SEBASTIAN COUNTY HISTORICAL SOCIETY,4799960079,HTTP://WWW.GREENWOODMUSEUMONLINE.COM/,-94.25344,35.20554,PO BOX 523,GREENWOOD,AR,72936
8400500082,HSC,DESHA COUNTY HISTORICAL SOCIETY, , ,-91.39803,33.62835,209 W OAK ST,MCGEHEE,AR,71654
8400500085,HSC,ARKANSAS HISTORICAL ASSOCIATION,4795755884,HTTP://ARKANSASHISTORICALASSOCIATION.ORG/,-94.14502,36.05216,416 OLD MAIN/UNIV OF ARK,FAYETTEVILLE,AR,72701
8400500086,HSC,CROSS COUNTY HISTORICAL SOCIETY,8702393815,HTTP://WWW.CCHS1862.ORG/WP/,-90.78564,35.22347,711 E UNION,WYNNE,AR,72396
8400500087,HSC,CLEVELAND COUNTY HISTORICAL SOCIETY, , ,-92.10224,33.94306,508 N PETERS AVE,NORMAN,AR,71665
8400500088,HSC,PULASKI COUNTY HISTORICAL SOCIETY, ,HTTP://WWW.PULASKICOUNTYHISTORY.ORG/,-92.32424,34.7576,PO BOX 251903,LITTLE ROCK,AR,72225
8400500089,HSC,CRAWFORD COUNTY HISTORICAL SOCIETY,4796325549,HTTP://ARKANSASHISTORICALASSOCIATION.ORG/?PAGE_ID=21,-94.20754,35.50037,614 FAYETTEVILLE STREET PO BOX 276,ALMA,AR,72957
8400500091,HSC,TRAILS TO TUCKERMAN HISTORICAL SOCIETY,8703492644,HTTP://WWW.TRAILSTOTUCKERMAN.COM/INDEX.PHP,-91.21164,35.71505,PO BOX 976,TUCKERMAN,AR,72473
8400500093,HSC,THE BARN AT HOLIDAY ISLAND,7344274311, ,-93.75592,36.49276,77 TABLE ROCK DR,EUREKA SPGS,AR,72631
8400500095,HSC,PEA RIDGE HISTORICAL SOCIETY, , ,-94.1258,36.43909,344 HALLECK LN,PEA RIDGE,AR,72751
8400500098,HSC,FOURCHE VALLEY CULTURAL PRESERVATION AND RESTORATION, , ,-93.78302,34.86152,10678 S AND G CIRCLE LN,HARVEY,AR,72841
8400500099,HSC,SOUTH EAST PIKE COUNTY ALLIANCE,8706152195,HTTP://THENEWRURAL.ORG/,-92.27439,35.71526,633 HIGHWAY 9,FOX,AR,71940
8400500101,HSC,WASHINGTON COUNTY HISTORICAL SOCIETY,5212970, ,-94.16691,36.06839,617 W LAFAYETTE ST,FAYETTEVILLE,AR,72701
8400500105,HSC,U.S. MARSHALS MUSEUM, ,HTTP://USMARSHALSMUSEUM.ORG/,-94.42784,35.38913,14 N 3RD ST STE D,FORT SMITH,AR,72901
8400500106,HSC,AFRICAN AMERICAN HERITAGE ASSOCIATION, ,HTTP://NWAHERITAGE.ORG/INDEX.HTML,-94.04572,36.01429,15847 ROUND MOUNTAIN RD,FAYETTEVILLE,AR,72701
8400500108,HSC,INTERNATIONAL HOO-HOO HEADQUARTERS AND MUSEUM,8703534997,HTTP://WWW.ARKANSAS.COM/ATTRACTIONS/DETAIL.ASPX?ID=92682,-93.15087,33.91867,207 E MAIN ST,GURDON,AR,71743
8400500111,HSC,PARK CENTRAL LITTLE ROCK, ,HTTP://WWW.PARKCENTRALLITTLEROCK.COM/,-92.29739,34.73703,1417 S PARK ST,LITTLE ROCK,AR,72202
8400500112,HSC,MT SHERMAN HISTORICAL COMMUNITY CENTER, , ,-93.18841,36.00777,HC 70 BOX 207,JASPER,AR,72641
8400500113,HSC,TRAIL OF TEARS ASSOCIATION,5016669032, ,-94.1715,36.24583,623 SPRING CREEK STREET,LOWELL,AR,72207
8400500118,HSC,GLADE COMMUNITY HISTORICAL SOCIETY, , ,-93.96346,36.43338,20916 SLATE GAP RD E,GARFIELD,AR,72732
8400500120,HSC,GREATER EUREKA SPRINGS VISITOR EDUCATION CENTER,8006387352,HTTP://WWW.EUREKASPRINGSCHAMBER.COM/,-93.74534,36.41029,516 VILLAGE CIR,EUREKA SPGS,AR,72632
8400500123,HSC,CRAWFORD COUNTY GENEALOGICAL SOCIETY,4796325549, ,-94.22203,35.47836,614 FAYETTEVILLE STREET,ALMA,AR,72921
8400500124,HSC,CHEROKEE VILLAGE HISTORICAL SOCIETY, , ,-91.53129,36.31109,10 AKOKISA DR,CHEROKEE VLG,AR,72529
8400500127,HSC,GURDON HISTORICAL PRESERVATION ASSOCIATION, , ,-93.14267,33.92408,PO BOX 193,GURDON,AR,71743
8400500129,HSC,SALINE COUNTY HISTORY HERITAGE SOCIETY,5017783770, ,-92.57741,34.57625,PO BOX 1712,BENTON,AR,72018
8400500130,HSC,SCOTT COUNTY HISTORICAL GENEALOGICAL SOCIETY,8127523388,HTTP://WWW.SCGSI.COM/,-85.79167,38.68191,1050 SOUTH MAIN STREET P O BOX 23,SCOTTSBURG,IN,72958
8400500132,HSC,VAN BUREN PLACE HISTORIC DISTRICT, , ,-94.35323,35.43596,PO BOX 245,VAN BUREN,AR,72957
8400500138,HSC,MUSIC FORT SMITH, , ,-94.42385,35.39039,323 N 5TH ST,FORT SMITH,AR,72901
8400500142,HSC,CLOVER BEND HISTORICAL AND PRESERVATION DISTRICT, ,HTTP://WWW.CLOVERBEND.COM,-91.20042,36.2101,4679 HIGHWAY 63,BLACK ROCK,AR,72415
8400500143,HSC,BASS REEVES LEGACY INITIATIVE,4797884211, ,-94.38493,35.3689,4300 ROGERS AVE SUITE 20 208,FORT SMITH,AR,72903
8400500145,HSC,ARKANSAS FALLEN FIREFIGHTERS MEMORIAL,5017862466,HTTP://WWW.ARFALLENFIREFIGHTERS.ORG,-92.29327,34.7449,ONE CAPITOL MALL,LITTLE ROCK,AR,72209
8400500146,HSC,CENTRAL DELTA HISTORICAL SOCIETY,8705892124,HTTP://WWW.DELTABYWAYS.COM/,-91.18533,34.88703,100 W CYPRESS ST,BRINKLEY,AR,72021
8400500148,HSC,NORTHEAST ARKANSAS LIVING HISTORIANS, ,HTTP://NEALIVINGHISTORIANS.ORG,-90.55298,36.0624,5000 W KINGSHIGHWAY,PARAGOULD,AR,72450
8400500152,HSC,PIONEER WASHINGTON RESTORATION FOUNDATION,8709832828, ,-93.63071,33.79774,PO BOX 127,WASHINGTON,AR,71862
8400500155,HSC,WASHINGTON COUNTY HISTORICAL SOCIETY,5212970,HTTP://WWW.WASHCOHISTORICALSOCIETY.ORG,-94.1575,36.06625,118 E DICKSON ST,FAYETTEVILLE,AR,72701
8400500158,HSC,DREW COUNTY HISTORICAL MUSEUM,8703677446, ,-91.79169,33.6214,404 S MAIN ST,MONTICELLO,AR,71655
8400500159,HSC,HISTORIC ARKANSAS MUSEUM,5013249351,HTTP://WWW.HISTORICARKANSAS.ORG,-92.26945,34.74606,200 E 3RD ST,LITTLE ROCK,AR,72201
8400500161,HSC,CARROLL COUNTY HISTORICAL SOCIETY,8706543948, ,-93.56431,36.3663,1880 COURTHOUSE ON THE SQUARE,BERRYVILLE,AR,72616
8400500162,HSC,DESHA COUNTY MUSEUM SOCIETY,8703824222,HTTP://DESHACOUNTYHISTORICAL.ORG/,-91.49718,33.89026,264 U S 165,DUMAS,AR,71639
8400500164,HSC,JOHNSON COUNTY HISTORICAL SOCIETY,4797543334,HTTP://WWW.JCHSIOWA.ORG,-93.46233,35.47108,131 W MAIN ST,CLARKSVILLE,AR,72830
8400500165,HSC,LITTLE RIVER COUNTY HISTORICAL SOCIETY,8708987202, ,-94.13102,33.67456,5 E MAIN ST,ASHDOWN,AR,71822
8400500167,HSC,EUREKA SPRINGS HISTORICAL MUSEUM,4792539417, ,-93.7407,36.39972,95 S MAIN ST,EUREKA SPGS,AR,72632
8400500168,HSC,FORT SMITH HISTORICAL SOCIETY, ,HTTP://WWW.FORTSMITHHISTORY.ORG/,-94.37616,35.38415,PO BOX 3676,FORT SMITH,AR,72913
8400500170,HSC,ROGERS HISTORICAL MUSEUM,4796211154,HTTP://WWW.ROGERSARKANSAS.COM/MUSEUM,-94.11814,36.33027,322 S 2ND ST,ROGERS,AR,72756
8400500171,HSC,CLEBURNE COUNTY HISTORICAL SOCIETY INC TERM,5013625225,HTTP://WWW.CLEBURNEHISTORY.INFO,-92.02771,35.4926,210 N BROADWAY ST,HEBER SPRINGS,AR,72543
8400500172,HSC,ASHLEY COUNTY HISTORICAL SOCIETY,8708532244, ,-91.79489,33.22708,302 NORTH CHERRY STREET,HAMBURG,AR,71646
8400500174,HSC,BAXTER COUNTY HISTORICAL SOCIETY,8704252551,HTTP://WWW.BAXTERCOUNTYHISTORY.ORG,-92.38287,36.33547,213 E 6TH ST # 102,MOUNTAIN HOME,AR,72654
8400500175,HSC,BELLA VISTA HISTORICAL SOCIETY, ,HTTP://WWW.BELLAVISTAMUSEUM.ORG,-94.24399,36.46091,1885 BELLA VISTA WAY,BELLA VISTA,AR,72714
8400500177,HSC,ARKANSAS AVIATION HISTORICAL SOCIETY,5013205700, ,-92.2668,34.74761,100 ROCK STREET,LITTLE ROCK,AR,72106
8400500180,HSC,BENTON COUNTY HISTORICAL SOCIETY,4792733561,HTTP://WWW.BENTONCOUNTYARHISTORICALSOCIETY.COM/,-94.21178,36.37313,306 NW 2ND ST,BENTONVILLE,AR,72712
8400500184,HSC,LONOKE COUNTY HISTORICAL SOCIETY,5016766750, ,-91.90148,34.78382,215 E FRONT ST,LONOKE,AR,72086
8400500185,HSC,HEMPSTEAD COUNTY HISTORICAL SOCIETY, , ,-93.58733,33.66609,PO BOX 1257,HOPE,AR,71802
8400500186,HSC,GRAND PRAIRIE HISTORICAL SOCIETY, , ,-91.36915,34.11019,PO BOX 355,GILLETT,AR,72055
8400500187,HSC,PINE BLUFF JEFFERSON COUNTY HISTORICAL MUSEUM, , ,-92.00239,34.22618,201 E 4TH AVE,PINE BLUFF,AR,71601
8400500189,HSC,NEWTON COUNTY HISTORICAL SOCIETY, ,HTTP://WWW.NEWTONCOUNTYAR.COM/,-93.18699,36.00821,403 CLARK STREET,JASPER,AR,72641
8400500190,HSC,SILOAM SPRINGS MUSEUM SOCIETY,4795244011,HTTP://WWW.SILOAMSPRINGSMUSEUM.COM/,-94.54003,36.18564,112 N MAXWELL ST,SILOAM SPGS,AR,72761
8400500191,HSC,FORESTER HISTORICAL SOCIETY, , ,-94.10236,34.88873,655 CHURCHILL ST,WALDRON,AR,72958
8400500193,HSC,HISTORIC PRESERVATION ALLIANCE OF ARKANSAS,5013724757,HTTP://PRESERVEARKANSAS.ORG/,-92.26893,34.75717,201 WEST 4TH STREET,NORTH LITTLE ROCK,AR,72203
8400500195,HSC,YELL COUNTY HISTORICAL & GENEALOGICAL SOCIETY, , ,-93.15507,35.21721,312 S 3RD ST,DARDANELLE,AR,72834
8400500197,HSC,MELTING POT GENEALOGICAL SOCIETY,5016240229, ,-93.06074,34.5038,649 OUACHITA AVE,HOT SPRINGS,AR,71902
8400500201,HSC,STONE COUNTY HISTORICAL SOCIETY, , ,-92.11232,35.86527,204 SCHOOL AVENUE,MOUNTAIN VIEW,AR,72560
8400500202,HSC,SEVIER COUNTY HISTORICAL SOCIETY,8706426642,HTTP://WWW.SEVIERCOUNTY-AR.COM,-94.33466,34.03993,717 WALTER J LEEPER DR,DE QUEEN,AR,71832
8400500203,HSC,MADISON COUNTY GENEALOGICAL AND HISTORICAL SOCIETY,4797386408,HTTP://WWW.MCGHS.INFO/,-93.74214,36.08403,220 S GASKILL ST,HUNTSVILLE,AR,72740
8400500204,HSC,COTTON BELT RAIL HISTORICAL SOCIETY,8705358819,HTTP://ARKANSASRAILROADMUSEUM.ORG/,-91.98583,34.22917,1700 PORT ROAD,PINE BLUFF,AR,71613
8400500205,HSC,ARKANSAS GOVERNORS MANSION,5013249805, ,-92.2763,34.73098,1800 CENTER STREET,LITTLE ROCK,AR,72201
8400500206,HSC,GOOD EARTH ASSOCIATION,8708929545, ,-90.9683,36.26435,610 N MARR ST,POCAHONTAS,AR,72455
8400500208,HSC,OSCEOLA HISTORIC RESTORATION PRESERVATION, , ,-89.96845,35.70293,106 WEST HALE STREET,OSCEOLA,AR,72370
8400500209,HSC,HOT SPRING COUNTY ARKANSAS HISTORICAL SOCIETY,5013371755, ,-92.81277,34.37237,PO BOX 674,MALVERN,AR,72104
8400500212,HSC,GREENE COUNTY HISTORICAL AND GENEALOGICAL SOCIETY,8702408944,HTTP://GREENECOUNTYGENEALOGICALANDHISTORICALSOCIETY.ORG/,-90.48757,36.05613,212 W COURT ST,PARAGOULD,AR,72451
8400500214,HSC,BRADLEY COUNTY HISTORICAL MUSEUM,8702265457, ,-92.06614,33.61416,108 S WALNUT ST,WARREN,AR,71671
8400500217,HSC,SONNY BOY BLUES SOCIETY,8709956569, ,-90.61527,34.54006,PO BOX 118,HELENA,AR,72342
8400500219,HSC,MILLER COUNTY HISTORICAL SOCIETY, , ,-93.87752,33.30256,PO BOX 343,FOUKE,AR,71837
8400500222,HSC,PEEL HOUSE FOUNDATION,4792739664,HTTP://WWW.PEELCOMPTON.ORG/PEEL,-94.20841,36.37578,312 N MAIN ST,BENTONVILLE,AR,72712
8400500225,HSC,MISSISSIPPI COUNTY HISTORICAL AND GENEALOGICAL SOCIETY,8702817583,HTTP://MISSISSIPPICOUNTYMUSEUM.COM/,-89.96956,35.70268,209 W HALE,OSCEOLA,AR,72370
8400500230,HSC,PRAIRIE GROVE BATTLEFIELD PARK,4798462990,HTTP://WWW.ARKANSASSTATEPARKS.COM/PRAIRIEGROVEBATTLEFIELD/,-94.30999,35.98262,506 E DOUGLAS ST,PRAIRIE GROVE,AR,72753
8400500235,HSC,ARKANSAS HISTORIC WINE MUSEUM,4799633990, ,-93.79172,35.29842,101 N CARBON CITY RD,PARIS,AR,72855
8400500237,HSC,ALTUS HISTORICAL SOCIETY,5804771950,HTTP://ALTUSOK.GOV/ALTUS-HISTORY,-93.74349,35.44574,509 S MAIN STREET,ALTUS,AR,72821
8400500238,HSC,GREENE COUNTY COURTHOUSE PRESERVATION SOCIETY, , ,-90.48946,36.05613,320 W COURT ST,PARAGOULD,AR,72450
8400500241,HSC,NORTHWEST ARKANSAS HISTORICAL EDUCATION ASSOCIATION, , ,-94.14786,36.31571,1801 BETH DR,ROGERS,AR,72758
8400500242,HSC,PEA RIDGE NATIONAL MILITARY PARK, ,HTTP://WWW.PEARIDGEFOUNDATION.COM/,-94.02593,36.44272,15930 E HIGHWAY 62,GARFIELD,AR,72751
8400500244,HSC,SUGAR CREEK MODEL RAILROAD & HISTORICAL SOCIETY,4798551113,HTTP://RAILROADCLUBSUGARCREEK.ORG,-94.32169,36.4647,40 KINTYRE DRIVE,BELLA VISTA,AR,72714
8400500245,HSC,SEARCY COUNTY HISTORICAL SOCIETY, , ,-92.61975,35.91359,PO BOX 133,MARSHALL,AR,72650
8400500249,HSC,IZARD COUNTY HISTORICAL AND GENEALOGICAL SOCIETY, , ,-92.06308,35.91806,PO BOX 877,MELBOURNE,AR,72556
8400500250,HSC,NORTHWEST ARKANSAS GENEALOGICAL SOCIETY,4792716820, ,-94.20831,36.36756,405 S MAIN ST,BENTONVILLE,AR,72712
8400500252,HSC,CROSSETT CULTURAL AND HISTORICAL SOCIETY, , ,-91.97297,33.13207,601 E 3RD AVE,CROSSETT,AR,71635
8400500256,HSC,REEDS BRIDGE BATTLEFIELD PRESERVATION SOCIETY,5017661527, ,-92.1222,34.86646,100 VETERANS DR,JACKSONVILLE,AR,72076
8400500257,HSC,CENTRAL ARKANSAS ANTIQUE MACHINERY AND HISTORICAL SOCIETY, ,HTTPS://WWW.FACEBOOK.COM/SHERIDANTRACTORCLUB,-92.38618,34.30486,PO BOX 579,SHERIDAN,AR,72150
8400500258,HSC,UNION COUNTY GENEALOGICAL SOCIETY, , ,-92.66284,33.22188,200 E 5TH,EL DORADO,AR,71731
8400500264,HSC,VILLAGE GENEALOGICAL SOCIETY, , ,-93.04992,34.6707,34 LA CANADA WAY,HOT SPRINGS,AR,71909
8400500267,HSC,BULL SHOALS HISTORICAL SOCIETY, , ,-92.58705,36.37928,717 CENTRAL BLVD ((HWY 178),BULL SHOAL,AR,72619
8400500271,HSC,MARIANNA HISTORIC TRUST, , ,-90.69034,34.73565,3307 LEE ROAD 225,MARIANNA,AR,72360
8400500273,HSC,ARKANSAS SUPREME COURT HISTORICAL SOCIETY,5016826879,HTTPS://COURTS.ARKANSAS.GOV/COURTS/SUPREME-COURT/HISTORICAL-SOCIETY/BACKGROUND,-92.27518,34.7455,JUSTICE BUILDING SUITE 1500 625 MARSHALL STREET,LITTLE ROCK,AR,72201
8400500279,HSC,WHITE COUNTY HISTORICAL SOCIETY,5012785010, ,-91.7429,35.25265,PO BOX 537,SEARCY,AR,72145
8400500280,HSC,BOONEVILLE HISTORICAL PRESERVATION SOCIETY,4796752666, ,-93.91851,35.13996,210 E MAIN STREET,BOONEVILLE,AR,72927
8400500285,HSC,JACKSON COUNTY HISTORICAL SOCIETY,8164611897,HTTP://WWW.JCHDONLINE.ORG,-91.25215,35.60852,PO BOX 430,NEWPORT,AR,72112
8400500286,HSC,GARLAND COUNTY HISTORICAL SOCIETY,5013212159, ,-93.05779,34.5078,328 QUAPAW AVE,HOT SPRINGS,AR,71903
8400500291,HSC,NORMAN HISTORIC PRESERVATION PROGRAM, , ,-93.70638,34.47009,PO BOX 226,NORMAN,AR,71960
8400500292,HSC,OLD PATHS HISTORICAL LIBRARY, , ,-94.21891,36.40645,3207 NW AVIGNON WAY,BENTONVILLE,AR,72712
8400500294,HSC,SONS CHAPEL RURAL BUILDERS ASSOCIATION, , ,-94.11661,36.10141,2700 N BROOKBURY XING,FAYETTEVILLE,AR,72703
8400500297,HSC,CONWAY COUNTY GENEALOGICAL ASSOCIATION,5013548578, ,-92.74389,35.15225,101 E RAILROAD AVE,MORRILTON,AR,72110
8400500303,HSC,HISTORIC SPRINGDALE, , ,-94.13077,36.18498,107 W EMMA AVE,SPRINGDALE,AR,72764
8400500304,HSC,99TH BOMBARDMENT GROUP HISTORICAL SOCIETY, ,HTTP://99BOMBGROUP.ORG/,-91.52692,36.3252,20 FLATHEAD DR,CHEROKEE VLG,AR,72529
8400500306,HSC,SULPHUR SPRINGS HISTORIC PRESERVATION ASSOCIATION, , ,-92.02093,34.18545,8 SOUTHERN PINES DR,PINE BLUFF,AR,71603
8400500315,HSC,LOWELL HISTORICAL MUSEUM,4797700191, ,-94.13187,36.25783,304 JACKSON PLACE,LOWELL,AR,72745
8400500317,HSC,FORT SMITH NATIONAL HISTORIC SITE,4797833961, ,-94.4214,35.38455,BOX 1406,FORT SMITH,AR,72902
8400500319,HSC,ARKANSAS POST NATIONAL MEMORIAL,8705482207, ,-91.48912,33.88555,221 COURT ST,DUMAS,AR,71639
8400500321,HSC,HOT SPRINGS NATIONAL PARK,5016206757, ,-93.05332,34.51174,101 RESERVE STREET,HOT SPRINGS,AR,71901
8400500322,HSC,LITTLE ROCK CENTRAL HIGH SCHOOL NHS,5013963006, ,-92.29731,34.73877,2120 DAISY L GATSON BATES DRIVE,LITTLE ROCK,AR,72202
8400600001,HSC,WINCHESTER MYSTERY HOUSE,4082472101,HTTP://WWW.WINCHESTERMYSTERYHOUSE.COM,-121.95011,37.31793,525 S WINCHESTER BLVD,SAN JOSE,CA,95128
8400600004,HSC,WILLIAM HEATH DAVIS HOUSE,6192334692, ,-117.16047,32.7105,410 ISLAND AVE,SAN DIEGO,CA,92101
8400600008,HSC,WEST SACRAMENTO HISTORICAL SOCIETY & MUSEUM,9163741849,HTTP://WWW.WESTSACHISTORICALSOCIETY.ORG,-121.5259,38.57966,849 JEFFERSON BLVD,WEST SACRAMENTO,CA,95691
8400600009,HSC,WILL ROGERS STATE HISTORIC PARK MUSEUM,3104548212, ,-118.51039,34.05467,1501 WILL ROGERS STATE PARK ROAD,PACIFIC PALISADES,CA,90272
8400600014,HSC,WHALEY HOUSE,6192979327,HTTP://WWW.SOHOSANDIEGO.ORG,-117.19443,32.75259,2476 SAN DIEGO AVE,SAN DIEGO,CA,92110
8400600022,HSC,WEAVERVILLE JOSS HOUSE STATE HISTORIC PARK,5306235284, ,-122.49109,40.5985,299 AND OREGON STREET,WEAVERVILLE,CA,96087
8400600026,HSC,ZALUD HOUSE,2097827461, ,-119.01727,36.07295,393 N HOCKETT ST,PORTERVILLE,CA,93257
8400600037,HSC,SUSANNA BIXBY BRYANT MUSEUM,7146940235, ,-117.70887,33.87545,5700 SUSANNA BRYANT DR,YORBA LINDA,CA,92887
8400600038,HSC,WEST SACRAMENTO HISTORICAL,9163741849, ,-121.51014,38.5882,324 3RD ST,WEST SACRAMENTO,CA,95605
8400600046,HSC,WASCO HISTORICAL SOCIETY & MUSEUM,6617588948,HTTP://WWW.KCHISTORICALSOCIETY.ORG,-119.35349,35.59726,PO BOX 186,WASCO,CA,93280
8400600054,HSC,TALLAC MUSEUM AND HISTORIC SITE,5305415227,HTTP://TAHOEHERITAGE.ORG/,-120.00224,38.93466,2435 VENICE DRIVE ROOM #108,SOUTH LAKE TAHOE,CA,96150
8400600055,HSC,TULARE HISTORICAL MUSEUM,5596862074,HTTP://WWW.TULAREHISTORICALMUSEUM.ORG,-119.34428,36.20845,PO BOX 248,TULARE,CA,93275
8400600056,HSC,SAN FRANCISCO MUSEUM AND HISTORICAL SOCIETY,4155371105,HTTP://WWW.SFHISTORY.ORG,-122.40534,37.78595,785 MARKET ST,SAN FRANCISCO,CA,94103
8400600059,HSC,SANCHEZ ADOBE HISTORIC SITE,6503591462, ,-122.22919,37.48656,2200 BROADWAY ST,REDWOOD CITY,CA,94063
8400600068,HSC,SHADELANDS RANCH HISTORICAL MUSEUM,9259357871,HTTP://WALNUTCREEKHISTORY.INFO,-122.0202,37.92525,2660 YGNACIO VALLEY RD,WALNUT CREEK,CA,94598
8400600072,HSC,SOUTH COUNTY HISTORICAL SOCIETY HERITAGE HOUSE,8054898282,HTTP://WWW.SOUTHCOUNTYHISTORY.ORG,-120.57985,35.11816,PO BOX 633,ARROYO GRAND,CA,93421
8400600074,HSC,SEPULVEDA HOUSE,2136281274, ,-118.23856,34.05731,622 N MAIN ST,LOS ANGELES,CA,90012
8400600075,HSC,SANTA CRUZ COUNTY HISTORICAL MUSEUM, ,HTTP://WWW.SANTACRUZMAH.ORG,-122.02509,36.97421,705 FRONT ST,SANTA CRUZ,CA,95060
8400600086,HSC,SFVHS PIONEER CEMETERY,8183655860,HTTP://WWW.SFVHS.COM,-118.46729,34.27044,10940 SEPULVEDA BLVD,MISSION HILLS,CA,91345
8400600092,HSC,SUNNYVALE HISTORICAL MUSEUM,4087490220,HTTP://HERITAGEPARKMUSEUM.ORG/,-122.03564,37.35121,PO BOX 2187,SUNNYVALE,CA,94087
8400600096,HSC,SONOMA STATE HISTORIC PARK,7079381519, ,-122.47206,38.29336,PO BOX 1702,SONOMA,CA,95476
8400600104,HSC,SONOMA STATE HISTORIC PARK ASSOCIATION,7079389560,HTTP://WWW.SONOMAPARKS.ORG/,-122.47206,38.29336,PO BOX 1702,SONOMA,CA,95476
8400600109,HSC,SHASTA LAKE HERITAGE AND HISTORICAL SOCIETY,5302753995, ,-122.38851,40.65826,3400 SHASTA GATEWAY DR S,SHASTA LAKE,CA,96019
8400600115,HSC,SEARLES VALLEY HISTORICAL SOCIETY,3193624678, ,-117.36907,35.76085,PO BOX 630,TRONA,CA,93592
8400600118,HSC,SAN MATEO COUNTY HISTORICAL MUSEUM,6502990104,HTTP://WWW.HISTORYSMC.ORG,-122.32349,37.55374,2200 BROADWAY ST REDWOOD CITY,REDWOOD CITY,CA,94402
8400600120,HSC,TUSTIN AREA HISTORICAL SOCIETY AND MUSEUM,7147315701,HTTP://WWW.TUSTINHISTORY.COM,-117.82355,33.74279,395 EL CAMINO REAL,TUSTIN,CA,92780
8400600126,HSC,SOUTH PASADENA PRESERVATION,6267999089,HTTP://SPPRESERVATION.ORG/,-118.1504,34.10911,1414 FAIR OAKS AVE STE 6,S PASADENA,CA,91030
8400600127,HSC,SARATOGA HISTORICAL PARK AND MUSEUM,4088674311, ,-122.03127,37.25804,20450 SARATOGA LOS GATOS RD,SARATOGA,CA,95070
8400600129,HSC,SOUTH BAY HISTORICAL RAILROAD,4082433969,HTTP://WWW.SBHRS.ORG,-121.93757,37.35363,1005 RAILROAD AVE,SANTA CLARA,CA,95050
8400600132,HSC,SHASTA STATE HISTORIC PARK, ,HTTP://WWW.PARKS.CA.GOV/?PAGE_ID=456,-121.49689,38.57607,1416 9TH STREET,SACRAMENTO,CA,96087
8400600138,HSC,SIERRA VALLEY MUSEUM,5309936754, ,-120.27328,39.67814,105 BECKWITH STREET,LOYALTON,CA,96118
8400600139,HSC,SAN LUIS OBISPO COUNTY HISTORICAL SOCIETY & MUSEUM,8055430638,HTTP://HISTORYCENTERSLO.ORG/,-120.66101,35.27968,PO BOX 585,SN LUIS OBIS,CA,93406
8400600141,HSC,ROBERT LOUIS STEVENSON HOUSE,8316497118,HTTP://WWW.PARKS.CA.GOV/?PAGE_ID=963,-121.89318,36.59665,530 HOUSTON ST,MONTEREY,CA,93940
8400600151,HSC,SAN DIEGO MINERAL AND GEM SOCIETY,6192398812,HTTP://WWW.SDMG.ORG,-117.14157,32.92045,8473 HYDRA LN,SAN DIEGO,CA,92126
8400600154,HSC,RAMONA HISTORICAL SOCIETY GUY B WOODWARD MUSEUM,7607897644,HTTP://WWW.WOODWARDMUSEUM.ORG,-116.86274,33.04532,645 MAIN ST,RAMONA,CA,92065
8400600165,HSC,PALO VERDE HISTORICAL MUSEUM AND SOCIETY,7609228770,HTTP://PALOVERDEVALLEYTIMES.COM,-114.59546,33.61214,PO BOX 2325,BLYTHE,CA,92226
8400600182,HSC,PARKS JANEWAY CARRIAGE HOUSE,8056887889, ,-120.08104,34.61247,3596 SAGUNTO ST,SANTA YNEZ,CA,93460
8400600185,HSC,PERALTA ADOBE AND FALLON HOUSE,4089938300,HTTP://HISTORYSANJOSE.ORG,-121.89458,37.33693,175 W SAINT JOHN ST,SAN JOSE,CA,95110
8400600187,HSC,POWAY HISTORICAL SOCIETY MUSEUM,8586798587,HTTP://WWW.POWAYHISTORICALSOCIETY.ORG,-117.03669,32.95727,PO BOX 19,POWAY,CA,92074
8400600194,HSC,RANCHO LOS CERRITOS HISTORIC SITE,2134249423, ,-118.19667,33.83959,4600 VIRGINIA ROAD,LONG BEACH,CA,90807
8400600200,HSC,PITTSBURG HISTORICAL SOCIETY AND MUSEUM,9254397501,HTTP://WWW.PITTSBURGCA.NET/,-121.90737,38.01642,PO BOX 1816,PITTSBURG,CA,94565
8400600207,HSC,POINT SAN LUIS LIGHTHOUSE,8555337843,HTTP://SANLUISLIGHTHOUSE.ORG,-120.66101,35.27968,PO BOX 13556,SN LUIS OBIS,CA,93406
8400600211,HSC,OLD SETTLERS HISTORICAL MUSEUM,5626910258, ,-117.94452,33.93186,215 E LA HABRA BLVD,LA HABRA,CA,90631
8400600213,HSC,OJAI VALLEY MUSEUM AND HISTORICAL SOCIETY,8056401390,HTTP://WWW.OJAIVALLEYMUSEUM.ORG,-119.26063,34.44023,PO BOX 204,OJAI,CA,93024
8400600240,HSC,WATSON CABIN MUSEUM,5305831762,HTTP://WWW.NORTHTAHOEMUSEUMS.ORG,-120.12051,39.18008,PO BOX 6141,TAHOE CITY,CA,96145
8400600241,HSC,GATEKEEPER'S MUSEUM,5305831762,HTTP://WWW.NORTHTAHOEMUSEUMS.ORG,-120.12051,39.18008,PO BOX 6141,TAHOE CITY,CA,96145
8400600244,HSC,MUSEUM ON MAIN STREET,9254622766,HTTP://WWW.MUSEUMONMAIN.ORG,-121.87511,37.66235,603 MAIN ST,PLEASANTON,CA,94566
8400600246,HSC,MORGAN HILL HISTORICAL SOCIETY MORGAN HILL HOUSE,4087795755,HTTP://WWW.MORGANHILLHISTORICALSOCIETY.ORG/INDEX.HTML,-121.66221,37.1399,17860 MONTEREY ST,MORGAN HILL,CA,95037
8400600256,HSC,MISSION PRESERVATION FOUNDATION,9492341300,HTTP://WWW.MISSIONSJC.COM,-117.66374,33.50369,31522 CAMINO CAPISTRANO,SAN JUAN CAPISTRANO,CA,92675
8400600257,HSC,MANTECA HISTORICAL SOCIETY AND MUSEUM,2098253021,HTTP://MANTECAMUSEUM.ORG/,-121.21309,37.81269,PO BOX 907,MANTECA,CA,95336
8400600264,HSC,MUSEUM-HISTORICAL,7072634555,HTTP://WWW.CO.LAKE.CA.US/GOVERNMENT/DIRECTORY/MUSEUMS/LAKEPORT.HTM,-122.91707,39.0532,PO BOX 1505,LAKEPORT,CA,95453
8400600277,HSC,MCCONAGHY HOUSE,5105810223, ,-122.12154,37.67089,18701 HESPERIAN BLVD,HAYWARD,CA,94541
8400600289,HSC,MARSTON HOUSE,6192979327, ,-117.15827,32.74306,3525 7TH AVE,SAN DIEGO,CA,92103
8400600297,HSC,MISSION SAN JOSE AND MUSEUM,5106571797,HTTP://WWW.MISSIONSANJOSE.ORG,-121.92785,37.51442,PO BOX 3314,FREMONT,CA,94539
8400600300,HSC,MORGAN HILL HISTORICAL MUSEUM,4087795755, ,-121.64715,37.12038,PO BOX 1258,MORGAN HILL,CA,95038
8400600301,HSC,LUMMIS HOME AND GARDEN,3232220546, ,-118.2068,34.09346,200 E AVENUE 43,LOS ANGELES,CA,90031
8400600305,HSC,MARTINEZ HISTORICAL SOCIETY,9252288160,HTTP://WWW.MARTINEZHISTORY.ORG/,-122.11179,37.9967,PO BOX 14,MARTINEZ,CA,94553
8400600308,HSC,LUTHER BURBANK HOME & GARDENS,7075245445,HTTP://WWW.LUTHERBURBANK.ORG/,-122.71077,38.43993,204 SANTA ROSA AVE,SANTA ROSA,CA,95402
8400600324,HSC,JAPANESE AMERICAN HISTORICAL SOCIETY,8585059020, ,-116.96944,32.73079,10463 AUSTIN DR,SPRING VALLEY,CA,91978
8400600327,HSC,HISTORICAL SOCIETY OF LONG BEACH,5624242220,HTTP://HSLB.ORG/,-118.18462,33.83299,4260 ATLANTIC AVE,LONG BEACH,CA,90801
8400600345,HSC,LAKE TAHOE HISTORICAL SOCIETY MUSEUM,5305415458,HTTP://WWW.LAKETAHOEMUSEUM.ORG,-119.97712,38.93954,3058 LAKE TAHOE BOULEVARD,SOUTH LAKE TAHOE,CA,96150
8400600346,HSC,JENSEN ALVARADO HISTORIC RANCH AND MUSEUM,9513696055,HTTP://WWW.RIVCOPARKS.ORG/HISTORIC-SITES/JENSEN/JENSEN-ALVARADO-HISTORIC-RANCH-AND-MUSEUM/,-117.41496,33.99307,4307 BRIGGS ST,RIVERSIDE,CA,92509
8400600347,HSC,JEWISH FEDERATION COUNCIL OF GREATER LOS ANGELES,3237618984,HTTP://WWW.JEWISHLA.ORG/,-118.36989,34.06402,6505 WILSHIRE BOULEVARD SUITE 100,LOS ANGELES,CA,90048
8400600355,HSC,HISTORICAL SOCIETY OF WEST COVINA,6269192580, ,-117.92364,34.06874,336 S GLENDORA AVE,WEST COVINA,CA,91790
8400600364,HSC,LAKE COUNTY MUSEUMS, , ,-122.91764,39.04307,333 SECOND ST,LAKEPORT,CA,95453
8400600377,HSC,LATHROP HOUSE,6503655564,HTTP://LATHROPHOUSE.ORG,-122.22942,37.48703,627 HAMILTON ST,REDWOOD CITY,CA,94063
8400600378,HSC,HOWE-WAFFLE HOUSE AND CARRIAGE HOUSE, , ,-117.8665,33.74986,SYCAMORE & CIVIC CENTER DR,SANTA ANA,CA,92702
8400600379,HSC,LOS PENASQUITOS RANCH HOUSE,8584847504, ,-117.12745,32.93753,12020 BLACK MOUNTAIN RD,SAN DIEGO,CA,92129
8400600383,HSC,HISTORICAL FIRE HYDRANT MUSEUM,9164824272, ,-121.36567,38.59376,4064 LAS PASAS WAY,SACRAMENTO,CA,95864
8400600396,HSC,GUATEMALAN HOUSE OF CULTURE,2132503416, ,-118.26396,34.05251,1138 WILSHIRE BLVD,LOS ANGELES,CA,90017
8400600406,HSC,FLIGHT TEST HISTORICAL FOUNDATION,6612778050, ,-117.87532,34.98811,PO BOX 57,EDWARDS,CA,93523
8400600412,HSC,HARGITT HOUSE,5628649663, ,-118.06817,33.89842,12426 MAPLEDALE ST,NORWALK,CA,90650
8400600416,HSC,GLOBAL AERONAUTICAL FOUNDATION A HISTORICAL FLYING MUSEUM,8055291748, ,-118.87743,34.28073,9455 BUENA VIS,MOORPARK,CA,93021
8400600417,HSC,FRESNO BEE BUILDING, , ,-119.79564,36.74003,1555 VAN NESS AVE,FRESNO,CA,93721
8400600421,HSC,FORT HUMBULDT STATE HISTORIC PARK,7074456547, ,-124.18871,40.77679,3431 FORT AVENUE,EUREKA,CA,95003
8400600423,HSC,HILL HOUSE MUSEUM,2093696073,HTTP://WWW.LODIHISTORY.ORG,-122.7612,48.98995,PO BOX 1419,BLAINE,WA,98231
8400600448,HSC,HERITAGE JUNCTION HISTORIC PARK,6617134012, ,-118.54754,34.37921,PO BOX 221925,NEWHALL,CA,91322
8400600453,HSC,GLENDORA HISTORICAL SOCIETY MUSEUM,6269630419,HTTP://WWW.GLENDORAHISTORICALSOCIETY.ORG,-117.85584,34.11914,PO BOX 532,GLENDORA,CA,91740
8400600455,HSC,FONTANA HISTORICAL SOCIETY,9098224274,HTTP://WWW.WAYMARKING.COM/WAYMARKS/WM9K71_FONTANA_HISTORICAL_SOCIETY_FONTANA_CA,-117.43653,34.10071,16830 SPRING ST,FONTANA,CA,92335
8400600458,HSC,HARRIS-LASS HISTORIC MUSEUM,4082497905,HTTP://WWW.HARRISLASS.ORG,-121.95279,37.34243,1889 MARKET ST,SANTA CLARA,CA,95050
8400600464,HSC,COHEN BRAY HOUSE,5105361703,HTTP://WWW.COHENBRAYHOUSE.INFO/,-122.22886,37.77944,1440 29TH AVE,OAKLAND,CA,94601
8400600472,HSC,CORONADO MUSEUM OF HISTORY AND ART,6194357242,HTTP://CORONADOHISTORY.ORG,-117.17957,32.68459,1100 ORANGE AVENUE,CORONADO,CA,92118
8400600475,HSC,DANISH AMERICAN HISTORICAL,5598980227,HTTP://WWW.DANISHMUSEUM.ORG/LINKS.CFM,-119.79144,36.79036,PO BOX 5971,FRESNO,CA,93755
8400600477,HSC,DR. GEORGE C. CLARK HERITAGE HOUSE, ,HTTP://FULLERTONARBORETUM.ORG/,-117.88549,33.8903,1900 ASSOCIATED ROAD,FULLERTON,CA,92634
8400600484,HSC,COMMUNITY MEMORIAL MUSEUM,5308227141, ,-121.63628,39.14639,1333 BUTTE HOUSE RD,YUBA CITY,CA,95993
8400600487,HSC,COVINA VALLEY HISTORICAL SOCIETY, , ,-117.88924,34.08777,125 E COLLEGE ST,COVINA,CA,91723
8400600488,HSC,EHMANN HOME,5305335316,HTTP://WWW.CITYOFOROVILLE.ORG/INDEX.ASPX?PAGE=18&RECORDID,-121.55713,39.51164,1480 LINCOLN ST,OROVILLE,CA,95965
8400600497,HSC,CHINO'S OLD SCHOOLHOUSE MUSEUM,9096276464, ,-117.68513,34.01713,5493 B ST,CHINO,CA,91710
8400600504,HSC,EHRMAN MANSION SUGAR PINE POINT STATE PARK,5305253345,HTTP://WWW.PARKS.CA.GOV/?PAGE_ID=991,-120.13494,39.05024,7595 STATE ROUTE 89,TAHOMA,CA,96142
8400600518,HSC,EL PUEBLO DE LOS ANGELES HISTORIC MONUMENT,2134856855, ,-118.23865,34.05701,125 PASEO DE LA PLZ,LOS ANGELES,CA,90012
8400600519,HSC,CONFUSION HILL GRAVITY HOUSE,7079256456, ,-123.70445,39.84814,75001 HIGHWAY 101 N,LEGGETT,CA,95585
8400600533,HSC,EL DORADO COUNTY HISTORICAL SOCIETY MUSEUM,5306260773, ,-121.17761,38.67796,198 WOOL ST,FOLSOM,CA,95630
8400600535,HSC,CENTRAL CALIFORNIA HISTORICAL,2093928264,HTTP://B25.NET,-120.58639,37.0247,5543 MINT RD,DOS PALOS,CA,93620
8400600539,HSC,ELK GROVE HISTORICAL SOCIETY,9166858115,HTTP://WWW.ELKGROVEHISTORICALSOCIETY.COM/,-121.37615,38.40928,PO BOX 562,ELK GROVE,CA,95759
8400600570,HSC,AMERICAN SOCIETY OF MILITARY HISTORY AND MUSEUM,2137461776,HTTP://WWW.LEGION.ORG,-118.27244,34.02636,2615 S GRAND AVE,LOS ANGELES,CA,90007
8400600575,HSC,ARDEN-MODJESKA HISTORIC SITE,9499232230, ,-117.62857,33.70843,29042 MODJESKA CANYON RD,SILVERADO,CA,92676
8400600576,HSC,AINSLEY HOUSE,4088662758,HTTP://CAMPBELLMUSEUMS.ORG/,-121.94483,37.28898,300 GRANT ST,CAMPBELL,CA,95008
8400600588,HSC,CAMPBELL HISTORICAL MUSEUM,4088662119, ,-121.96637,37.28499,51 N CAMPBELL AVE,CAMPBELL,CA,95008
8400600590,HSC,ALPINE HISTORICAL SOCIETY MUSESUM,6196598740, ,-116.77573,32.82392,2116 TAVERN RD,ALPINE,CA,91901
8400600594,HSC,BOLTON HALL MUSEUM,8183523420,HTTP://LITTLELANDERSHISTORICALSOCIETY.ORG,-118.29279,34.252,PO BOX 203,TUJUNGA,CA,91043
8400600601,HSC,BENICIA CAPITOL STATE HISTORIC PARK,7079425705,HTTP://WWW.PARKS.CA.GOV,-122.46278,38.29697,363 THIRD ST WEST,SONOMA,CA,95476
8400600614,HSC,BUENA PARK HISTORICAL SOCIETY,7145211887,HTTP://WWW.HISTORICALSOCIETY.ORG/,-117.99815,33.86414,6631 BEACH BLVD,BUENA PARK,CA,90621
8400600621,HSC,CAPITOLA HISTORICAL MUSEUM,8314640322, ,-121.95326,36.97408,410 CAPITOLA AVE,CAPITOLA,CA,95010
8400600623,HSC,BRADFORD HOUSE,7149932470,HTTP://WWW.BRADFORDHOUSE.US/,-117.86473,33.88903,136 E PALM DR,PLACENTIA,CA,92870
8400600626,HSC,BANCROFT RANCH HOUSE,6194691480, ,-117.00293,32.74566,9065 MEMORY LN,SPRING VALLEY,CA,91977
8400600633,HSC,BIDWELL MANSION STATE HISTORIC PARK,5305382200,HTTP://WWW.PARKS.CA.GOV/ERROR,-121.83534,39.73261,PO BOX 1303,CHICO,CA,95927
8400600643,HSC,EL DORADO HILLS GENEALOGICAL SOCIETY,5306260773, ,-121.05842,38.66907,403 SORTWELL CT,EL DORADO HL,CA,95762
8400600644,HSC,LOS ANGELES HIGH SCHOOL HISTORICAL SOCIETY, , ,-118.37053,33.97857,6709 LA TIJERA BLVD STE,LOS ANGELES,CA,90045
8400600646,HSC,INLAND EMPIRE BUFFALO SOLDIERS HERITAGE ASSOCIATION, , ,-117.37382,33.98042,PO BOX 366,RIVERSIDE,CA,92502
8400600649,HSC,BOYLE HEIGHTS HISTORICAL SOCIETY, ,HTTP://BOYLEHEIGHTSHISTORICALSOCIETY.COM/,-118.2197,34.04279,435 SOUTH BOYLE AVENUE,LOS ANGELES,CA,90086
8400600653,HSC,ORDER OF THE FIRST FAMILIES OF MAINE, , ,-82.44933,35.24786,201 KENMURE DR,FLAT ROCK,NC,28731
8400600656,HSC,SAN DIEGO NAVY HISTORICAL ASSOCIATION,6194271847, ,-117.05261,32.62362,964 GUATAY,CHULA VISTA,CA,91911
8400600657,HSC,GENEVA OFFICE BUILDING AND POWER HOUSE,4158312701, ,-122.4492,37.72282,755 OCEAN AVE,SAN FRANCISC,CA,94112
8400600660,HSC,EL CAMINO REAL PRESERVATION TRUST,9164699330,HTTP://EL-CAMINO-REAL-TRUST.ORG/SITE/WELCOME.HTML,-121.49483,38.61215,1500 W EL CAMINO AVENUE SUITE 253,SACRAMENTO,CA,95831
8400600661,HSC,OLD CITY CEMETERY COMMITTEE, ,HTTP://OLDCITYCEMETERY.COM/,-121.50121,38.5621,1000 BROADWAY,SACRAMENTO,CA,95818
8400600663,HSC,ORANGE BARRIO HISTORICAL SOCIETY, , ,-117.85534,33.78778,PO BOX 802,ORANGE,CA,92856
8400600664,HSC,HERITAGE FRESNO,5592435848,HTTP://WWW.HERITAGEFRESNO.ORG,-119.82649,36.77679,2930 N WEST AVE,FRESNO,CA,93705
8400600668,HSC,PORT CHICAGO NATIONAL MEMORIAL, ,HTTP://PORTCHICAGOMEMORIAL.ORG/,-122.15973,37.72065,PO BOX 546,SAN LEANDRO,CA,94577
8400600670,HSC,LONG BEACH FIREMANS HISTORICAL SOCIETY,9494938718,HTTP://LBFDMUSEUM.ORG/,-118.17315,33.78577,1445 PETERSON AVE,LONG BEACH,CA,90813
8400600673,HSC,ROSEVILLE GENEALOGICAL SOCIETY,9167733003,HTTP://WWW.ROSEVILLEHISTORICAL.ORG,-121.28535,38.75297,557 LINCOLN ST,ROSEVILLE,CA,95678
8400600675,HSC,INSTITUTE FOR VIKING & NORTH ATLANTIC STUDIES, , ,-118.53822,34.03712,16321 PACIFIC COAST HWY,PACIFIC PALI,CA,90272
8400600683,HSC,STROLL THROUGH HISTORY,5306622989,HTTP://WWW.STROLLTHROUGHHISTORY.COM/,-121.75212,38.67144,PO BOX 1706,WOODLAND,CA,95776
8400600686,HSC,HILLCREST HISTORY GUILD,6193793416,HTTP://WWW.HILLQUEST.COM,-117.16206,32.73729,3065 3RD AVE APT 3,SAN DIEGO,CA,92103
8400600696,HSC,VIET HERITAGE SOCIETY,4088219330, ,-121.87681,37.34284,696 E SANTA CLARA STREET,SAN JOSE,CA,95112
8400600701,HSC,HEMET-SAN JACINTO VALLEY HISTORICAL SOCIETY,9519294409,HTTP://HEMETMUSEUM.COM/MUSEUM-BEGINNINGS-A-DREAM-REALIZED/HEMET-HISTORICAL-SOCIETY/,-116.9727,33.74763,100 W FLORIDA AVENUE,HEMET,CA,92546
8400600705,HSC,HISTORICAL SONORA PASS WAGON TRAIN GROUP, , ,-121.30856,37.84581,1400 FREWERT RD,LATHROP,CA,95330
8400600707,HSC,SPURGEON ARCHIVE,6612955777, ,-118.62555,34.44074,28001 HARRISON PKWY,VALENCIA,CA,91355
8400600710,HSC,PINNACLE QUILTERS OF SAN BENITO COUNTY, ,HTTP://WWW.PINNACLEQUILTERS.ORG/#ANCHOR_27,-121.54012,36.85266,PO BOX 1133,SN JUN BATST,CA,95045
8400600711,HSC,VINTAGE BICYCLE ASSOCIATION OF CALIFORNIA, , ,-120.60887,35.11358,846 NAPLES STREET,GROVER BEACH,CA,93433
8400600716,HSC,GEORGE C AND HAZEL H REEDER HERITAGE FOUNDATION,9094451809,HTTP://WWW.REEDERRANCH.ORG,-117.69374,34.07395,5111 BENITO ST,MONTCLAIR,CA,91763
8400600717,HSC,MANZANAR, , ,-118.21859,36.84719,PO BOX 357,INDEPENDENCE,CA,93526
8400600719,HSC,MARITIME RADIO HISTORICAL SOCIETY, ,HTTP://WWW.RADIOMARINE.ORG/,-122.98412,38.03375,PO BOX 392,PT REYES STA,CA,94956
8400600721,HSC,MONTEREY FISHERMEN'S HISTORICAL ASSOCIATION,8316496544, ,-121.89536,36.59593,PO BOX 587,MONTEREY,CA,93942
8400600724,HSC,CALEXICO CARNEGIE TECHNOLOGY CENTER, ,HTTP://WWW.CALEXICOLIBRARY.ORG/CA/CARNEGIE,-117.11911,34.02297,12695 HILLTOP DR,REDLANDS,CA,92373
8400600728,HSC,WINTON HISTORICAL SOCIETY, , ,-120.61319,37.39439,PO BOX 554,WINTON,CA,95388
8400600729,HSC,WILSHIRE PARK, ,HTTP://WILSHIREPARK.ORG,-118.34769,34.06215,5482 WILSHIRE BLVD BOX 2,LOS ANGELES,CA,90036
8400600730,HSC,GOVERNORS RESIDENCE, , ,-118.4433,34.03804,11355 WEST OLYMPIC BLVD,LOS ANGELES,CA,90064
8400600733,HSC,MISSION HILLS HERITAGE, , ,-117.16736,32.74979,325 W WASHINGTON ST STE,SAN DIEGO,CA,92103
8400600734,HSC,SOLEDAD HISTORICAL SOCIETY,8316782780, ,-121.32767,36.42728,137 SOLEDAD STREET,SOLEDAD,CA,93960
8400600736,HSC,TUOLUMNE COUNTY FIRE DEPARTMENT MUSTER ASSOCIATION, , ,-120.32986,37.98124,18440 STRIKER CT,SONORA,CA,95370
8400600737,HSC,BAY AREA VINTAGE BASE BALL, ,HTTP://BAVBB.COM/#/ID/I8612619,-122.39408,37.7652,1025 17TH ST APT 2,SAN FRANCISC,CA,94107
8400600739,HSC,TUSTIN PRESERVATION CONSERVANCY,7147312380, ,-117.8262,33.74302,350 S B ST,TUSTIN,CA,92780
8400600742,HSC,SHAPELL MANUSCRIPT FOUNDATION, , ,-118.3982,34.06744,9401 WILSHIRE BLVD STE 1,BEVERLY HILL,CA,90212
8400600749,HSC,SANTA ANA POLICE MUSEUM AND HERITAGE SOCIETY, , ,-118.35248,34.15229,10153 RIVERSIDE DR,TOLUCA LAKE,CA,91602
8400600751,HSC,PACIFIC PINBALL MUSEUM,5107691349, ,-122.27675,37.77365,1510 WEBSTER STREET,ALAMEDA,CA,94501
8400600752,HSC,DR JOSE P RIZAL MONUMENT, , ,-118.10964,34.05248,900 VILLAGE DR,MONTEREY PAR,CA,91755
8400600755,HSC,NOTOMNE CULTURAL PRESERVATION, , ,-121.04886,37.98279,990 N FINE RD,LINDEN,CA,95236
8400600764,HSC,LOCKEFORD HISTORICAL SOCIETY, , ,-121.14675,38.15812,PO BOX 1701,LOCKEFORD,CA,95237
8400600765,HSC,HISTORIC LAFAYETTE, , ,-118.18596,33.7689,140 LINDEN AVE,LONG BEACH,CA,90802
8400600769,HSC,MENIFEE VALLEY HISTORICAL ASSOCIATION, , ,-117.17384,33.62948,33751 ZEIDERS RD,MENIFEE,CA,92584
8400600770,HSC,USS SAN FRANCISCO MEMORIAL FOUNDATION,5735902152,HTTP://WWW.USSSANFRANCISCO.ORG,-122.42023,37.77914,401 VAN NESS AVE,SAN FRANCISCO,CA,94131
8400600780,HSC,PRESERVATION OF LAND FOR AGRICULTURAL NEEDS TRUST, , ,-122.23087,37.45013,2055 WOODSIDE RD STE 155,REDWOOD CITY,CA,94061
8400600782,HSC,SAN FERNANDO VALLEY HISTORICAL SOCIETY,8183657810,HTTP://WWW.SFVHS.COM/,-118.46729,34.27044,10940 SEPULVEDA BLVD,MISSION HILLS,CA,91346
8400600783,HSC,WESTERN NUDIST RESEARCH LIBRARYCORP,7037772414,HTTP://WWW.MHHNA.ORG/ABOUT.HTML,-117.44829,33.74384,25999 GLEN EDEN RD,CORONA,CA,92883
8400600785,HSC,NAPA POLICE HISTORICAL SOCIETY, ,HTTP://WWW.NAPAPOLICEHISTORY.COM/,-122.2864,38.29277,PO BOX 505,NAPA,CA,94559
8400600789,HSC,HOLOCAUST EDUCATION CENTER IN THE DESERT,7603288252, ,-116.42745,33.75931,8 DEERFIELD CT,RANCHO MIRAG,CA,92270
8400600794,HSC,SURPRISE VALLEY COMMUNITY AND VISITOR CENTER,5302796111,HTTP://WWW.JNRHOTEL.COM/VISITORCENTER.HTML,-120.17199,41.528,581 MAIN ST,CEDARVILLE,CA,96104
8400600796,HSC,CAMPTONVILLE HISTORICAL SOCIETY, , ,-121.08695,39.42696,PO BOX 153,CAMPTONVILLE,CA,95922
8400600798,HSC,ALBANY HISTORICAL SOCIETY ALBANY CA, ,HTTP://WWW.ALBANYCAHISTORY.ORG,-122.2932,37.88772,1249 MARIN AVE,ALBANY,CA,94706
8400600800,HSC,SAN FRANCISCO TRAINS,4152547931, ,-122.40197,37.68361,223 MARIPOSA ST,BRISBANE,CA,94005
8400600805,HSC,GREAT WALL OF CHINESE AMERICAN HEROES AND HEROINES, ,HTTP://CHINESEAMERICANHEROES.ORG/CONTACT-US/MGMT-TEAM/,-122.27154,37.7688,835 PORTOLA AVE,ALAMEDA,CA,94501
8400600807,HSC,RED RIVER COUNTY HISTORICAL SOCIETY, , ,-120.94054,38.32208,PO BOX 855,IONE,CA,95640
8400600809,HSC,OLDE SCHOOL RENAISSANCE PRODUCTIONS, , ,-122.02792,37.37295,330 FLORA VISTA AVE,SUNNYVALE,CA,94086
8400600815,HSC,SANTA ANA BLACK HISTORICAL SOCIETY,7145856635,HTTP://WWW.SANTAANABLACKHISTORY.COM/,-117.89015,33.74629,1601 WEST 2ND STREET,SANTA ANA,CA,92703
8400600818,HSC,SONOMA VETERANS MEMORIAL PARK ASSOCIATION,7079384105, ,-122.45729,38.2997,126 1ST STREET W,SONOMA,CA,95433
8400600819,HSC,ASIAN PACIFIC HISTORIC COLLABORATIVE, , ,-117.15365,32.92857,7930 PRAIRIE SHADOW RD,SAN DIEGO,CA,92126
8400600821,HSC,WAR HORSE & MILITARIA HERITAGE FOUNDATION,8188968390,HTTP://WWW.WARHORSEFOUNDATION.COM/,-118.36814,34.27773,11416 ORCAS AVE,SYLMAR,CA,91342
8400600823,HSC,WHEATLAND HISTORICAL SOCIETY,4066325519,HTTP://WWW.WHEATLANDHISTORICALSOCIETY.ORG/,-120.92767,39.26161,14818 BANNER QUAKER HILL RD,NEVADA CITY,CA,95959
8400600830,HSC,HALF MOON BAY HISTORICAL ASSOCIATION, , ,-122.42902,37.46558,326 MAIN ST,HALF MOON BA,CA,94019
8400600837,HSC,NATIONAL CAROUSEL ASSOCIATION, , ,-117.49477,47.74911,10009 N MOORE ST,SPOKANE,WA,99208
8400600840,HSC,CONEJO VALLEY HISTORICAL SOCIETY,8054989441,HTTP://WWW.STAGECOACHMUSEUM.ORG,-118.91074,34.17549,51 S VENTU PARK RD,NEWBURY PARK,CA,91320
8400600841,HSC,AMERICAN SOCIETY OF CHURCH HISTORY,2547107845,HTTP://WWW.CHURCHHISTORY.ORG,-122.74402,38.41429,2585 EDGEWATER DR,SANTA ROSA,CA,95407
8400600842,HSC,SIERRA COUNTY HISTORICAL SOCIETY,5308621310,HTTP://WWW.SIERRACOUNTYHISTORY.ORG/,-120.43419,39.64793,100 KENTUCKY MINE RD,SIERRA CITY,CA,96124
8400600844,HSC,MOTHER LODE MINERAL SOCIETY,2097236968,HTTP://MOTHERLODEMINERALSOCIETY.COM/,-121.01671,37.65654,PO BOX 1263,MODESTO,CA,95353
8400600845,HSC,DOWNEY HISTORICAL SOCIETY,5628622777,HTTP://WWW.DOWNEYHISTORICALSOCIETY.ORG,-118.13968,33.92171,2540 RIVES AVE,DOWNEY,CA,90242
8400600846,HSC,SIERRA HISTORIC SITES ASSOCIATION,5596836570,HTTP://WWW.FRESNOFLATSMUSEUM.ORG,-119.64175,37.33977,PO BOX 451,OAKHURST,CA,93644
8400600848,HSC,EAGLE ROCK VALLEY HISTORICAL SOCIETY,3232571357,HTTP://WWW.EAGLEROCKHISTORY.ORG,-118.21465,34.13955,2225 COLORADO BLVD,LOS ANGELES,CA,90041
8400600850,HSC,KINGSBURG HISTORICAL SOCIETY,5594100480, ,-119.54834,36.51404,PO BOX 282,KINGSBURG,CA,93631
8400600851,HSC,TRINITY COUNTY HISTORICAL SOCIETY,5306235211,HTTP://WWW.TRINITYMUSEUM.ORG/,-122.94221,40.73313,780 MAIN STREET,WEAVERVILLE,CA,96093
8400600853,HSC,SPANISHTOWN HISTORICAL SOCIETY,6507267084, ,-122.43751,37.46278,PO BOX 314,HALF MOON BAY,CA,94019
8400600855,HSC,CALAVERAS COUNTY HISTORICAL SOCIETY,2097541058,HTTP://WWW.CALAVERASCOHISTORICAL.COM/,-120.66046,38.19334,30 MAIN ST,SAN ANDREAS,CA,95249
8400600858,HSC,SAN JUAN CAPISTRANO HISTORICAL SOCIETY,9494938444,HTTP://WWW.SJCHISTORICALSOCIETY.COM,-117.66402,33.49986,31831 LOS RIOS ST,SAN JUAN CAP,CA,92675
8400600859,HSC,GARDEN GROVE HISTORICAL SOCIETY,7145308871, ,-117.95073,33.77781,PO BOX 4297,GARDEN GROVE,CA,92842
8400600861,HSC,SANTA MARIA VALLEY HISTORICAL SOCIETY,8059223130,HTTP://WWW.SANTAMARIAHISTORY.ORG,-120.43564,34.94662,616 S BROADWAY,SANTA MARIA,CA,93454
8400600864,HSC,TUOLUMNE COUNTY HISTORICAL SOCIETY,2095321317,HTTP://WWW.TCHISTORY.ORG/,-120.38589,37.98347,158 BRADFORD STREET,SONORA,CA,95370
8400600867,HSC,CONCORD HISTORICAL SOCIETY,9258273380, ,-122.04217,37.97592,1601 SUTTER ST,CONCORD,CA,94522
8400600868,HSC,NORTH LAKE TAHOE HISTORICAL SOCIETY,5305831762,HTTP://WWW.NORTHTAHOEMUSEUMS.ORG/,-120.12051,39.18008,PO BOX 6141,TAHOE CITY,CA,96145
8400600869,HSC,BREA HISTORICAL SOCIETY,7142562283,HTTP://WWW.BREAMUSEUM.ORG/,-117.90309,33.91117,652 S BREA BLVD,BREA,CA,92821
8400600870,HSC,RAMONA PIONEER HISTORICAL SOCIETY,7607897644,HTTP://WWW.WOODWARDMUSEUM.ORG/,-116.86274,33.04532,645 MAIN STREET,RAMONA,CA,92065
8400600873,HSC,BIG BEAR VALLEY HISTORICAL SOCIETY,9095858100, ,-116.83026,34.25608,GREENWAY DR,BIG BEAR CITY,CA,92314
8400600874,HSC,SAN ANTONIO VALLEY HISTORICAL ASSOCIATION, , ,-121.06862,35.93849,PO BOX 145,LOCKWOOD,CA,93932
8400600876,HSC,PICO RIVERA HISTORICAL MUSEUM,5629497100,HTTP://WWW.PICO-RIVERA.ORG,-118.09035,33.98982,PO BOX 313,PICO RIVERA,CA,90660
8400600877,HSC,DUNSMUIR-HELLMAN HISTORIC ESTATE,5106155555,HTTP://WWW.DUNSMUIR-HELLMAN.COM/,-122.14412,37.74262,2960 PERALTA OAKS CT,OAKLAND,CA,94605
8400600880,HSC,LAGUNA BEACH COMMUNITY HISTORICAL SOCIETY,9494976834,HTTP://WWW.LAGUNABEACHHISTORY.ORG/,-117.78488,33.54242,135 S COAST HWY,LAGUNA BEACH,CA,92651
8400600881,HSC,TRUCKEE-DONNER HISTORICAL SOCIETY,5305820893,HTTP://TRUCKEEHISTORY.ORG/,-120.21515,39.32771,10115 DONNER TRAIL RD,TRUCKEE,CA,96160
8400600882,HSC,NAPA VALLEY HERITAGE FUND G BISSONETTE, ,HTTP://WWW.NVHERITAGEFUND.ORG/,-122.46151,38.50635,PO BOX 162,SAINT HELENA,CA,94574
8400600884,HSC,SAN FRANCISCO ARCHITECTURAL HERITAGE,4154413000,HTTP://WWW.SFHERITAGE.ORG,-122.42461,37.79288,2007 FRANKLIN ST,SAN FRANCISC,CA,94109
8400600887,HSC,COACHELLA VALLEY HISTORICAL SOCIETY,7603426651, ,-116.22301,33.72151,82616 MILES AVENUE,INDIO,CA,92202
8400600889,HSC,CONTEMPORARY HISTORICAL VEHICLE ASSOCIATION, ,HTTP://WWW.CHVANATIONAL.ORG,-122.35056,40.53512,4888 SUNNYHILL LN,REDDING,CA,96002
8400600890,HSC,AMERICAN SOCIETY OF QUESTIONED DOCUMENT EXAMINERS, ,HTTP://WWW.ASQDE.ORG/,-118.18061,33.83267,PO BOX 18298,LONG BEACH,CA,90807
8400600891,HSC,SACRAMENTO TRUST FOR HISTORIC PRESERVATION,9168087059, ,-121.50427,38.58302,1014 2ND ST STE 300,SACRAMENTO,CA,95814
8400600893,HSC,YUBA FEATHER HISTORICAL ASSOCIATION,5306751025,HTTP://WWW.YFHMUSEUM.ORG,-121.26671,39.44168,19096 NEW YORK FLAT RD,FORBESTOWN,CA,95919
8400600894,HSC,HISTORIC MOUNT ST MARYS PRESERVATION COMMITTEE,5302735509, ,-121.06782,39.21454,410 S CHURCH ST,GRASS VALLEY,CA,95945
8400600895,HSC,SAN MATEO COUNTY HISTORICAL ASSOCIATION,6502990104,HTTP://WWW.HISTORYSMC.ORG,-122.22919,37.48656,2200 BROADWAY ST,REDWOOD CITY,CA,94063
8400600897,HSC,WHITTIER HISTORICAL SOCIETY & MUSEUM,5629453871,HTTP://WWW.WHITTIERMUSEUM.ORG,-118.0412,33.9799,6755 NEWLIN AVE,WHITTIER,CA,90601
8400600900,HSC,JOHNSTON HOUSE,6507260329,HTTP://WWW.JOHNSTONHOUSE.ORG/,-122.43751,37.46278,PO BOX 789,HALF MOON BA,CA,94019
8400600901,HSC,PATTERSON TOWNSHIP HISTORICAL SOCIETY, , ,-121.1395,37.47572,PO BOX 15,PATTERSON,CA,95363
8400600902,HSC,EL MONTE HISTORICAL SOCIETY,6264443813,HTTP://ELMONTECA.GOV,-118.03521,34.06572,3150 TYLER AVE,EL MONTE,CA,91731
8400600903,HSC,PIEDMONT HISTORICAL SOCIETY, , ,-122.23474,37.82377,358 HILLSIDE AVE,PIEDMONT,CA,94611
8400600904,HSC,RIALTO HISTORICAL SOCIETY,9098751750,HTTP://WWW.RIALTOHISTORICALSOCIETY.ORG/,-117.36992,34.10338,205 N RIVERSIDE AVE,RIALTO,CA,92377
8400600905,HSC,SELMA MUSEUM-HISTORICAL SOCIETY, , ,-119.61774,36.57191,PO BOX 300,SELMA,CA,93662
8400600908,HSC,VALLEY GUILD,8314242735, ,-121.65951,36.67666,132 CENTRAL AVE,SALINAS,CA,93901
8400600909,HSC,HISTORICAL SOCIETY OF LA VERNE, ,HTTP://WWW.LAVERNEHISTORICALSOCIETY.ORG,-117.77235,34.10295,1984 5TH ST,LA VERNE,CA,91750
8400600912,HSC,HISTORICAL SITES SOCIETY OF ARCATA,7078224722, ,-124.08079,40.8661,PO BOX 4521,ARCATA,CA,95518
8400600914,HSC,MENLO PARK HISTORICAL ASSOCIATION,6503302522, ,-122.18447,37.46279,PO BOX 1002,MENLO PARK,CA,94026
8400600915,HSC,PLACER COUNTY HISTORICAL MUSEUM FOUNDATION,5308897789,HTTP://WWW.PLACER.CA.GOV/DEPARTMENTS/FACILITY/PLACERMUSEUMS,-121.10354,38.93897,11526 C AVE,AUBURN,CA,95604
8400600917,HSC,PACIFIC PALISADES HISTORICAL SOCIETY, , ,-118.55129,34.07388,PO BOX 1299,PACIFIC PLSD,CA,90272
8400600921,HSC,SPRING VALLEY HISTORICAL SOCIETY,6194691480,HTTP://SVHISTORICALSOCIETY.ORG/,-117.00293,32.74566,9050 MEMORY LANE,SPRING VALLEY,CA,91976
8400600924,HSC,CONTRA COSTA COUNTY HISTORICAL SOCIETY,9256720240,HTTP://WWW.COCOHISTORY.COM/,-122.1367,38.01796,724 ESCOBAR ST,MARTINEZ,CA,94553
8400600927,HSC,HUMBOLDT COUNTY HISTORICAL SOCIETY,7074454342,HTTP://WWW.HUMBOLDTHISTORY.ORG/,-124.16304,40.80003,703 8TH ST,EUREKA,CA,95501
8400600928,HSC,WESTMINISTER HISTORICAL SOCIETY & MUSEUM,7148912597,HTTPS://WESTMINSTERHISTORICAL.WORDPRESS.COM,-117.9763,33.75758,8612 WESTMINSTER BOULEVARD,WESTMINSTER,CA,92683
8400600929,HSC,REDLANDS AREA HISTORICAL SOCIETY,9093076060,HTTP://RAHS.ORG,-117.19562,34.05791,PO BOX 8775,REDLANDS,CA,92375
8400600930,HSC,SONOMA LEAGUE FOR HISTORIC PRESERVATION,7079380169,HTTP://SONOMALEAGUE.ORG/SONOMA-LEAGUE-HISTORIC-PRESERVATION.HTML,-122.45607,38.2957,291 1ST STREET EAST,SONOMA,CA,95476
8400600931,HSC,CASA DE RANCHO CUCAMONGA HISTORICAL SOCIETY,9099894970, ,-117.61083,34.1101,8810 HEMLOCK STREET,RANCHO CUCAMONGA,CA,91729
8400600938,HSC,ALTADENA HISTORICAL SOCIETY,6267978016, ,-118.13307,34.18998,730 E ALTADENA DR,ALTADENA,CA,91001
8400600939,HSC,SAN MARCOS HISTORICAL SOCIETY,7607449025,HTTP://WWW.SMHISTORY.ORG,-117.152,33.18082,1952 SYCAMORE DR,SAN MARCOS,CA,92069
8400600941,HSC,SAN LUIS OBISPO COUNTY GENEALOGICAL SOCIETY,8057850383,HTTP://WWW.SLOCGS.ORG/,-120.66772,35.2788,520 DANA STREET,SAN LUIS OBISPO,CA,93423
